{"videoId":"Ox7K96kZhTc","places":[{"name":"Ingle Korean Steakhouse","roadAddress":"1926 14th St NW, Washington, DC 20009 미국","phone":"+1 202-977-7404","category":"한식당","lat":38.9164481,"lng":-77.0349689,"source":"google","mapUrl":"https://maps.app.goo.gl/Yq4JKaV4kocMXEf66"},{"name":"Ingle Korean Steakhouse","roadAddress":"8369 Leesburg Pike Suite A, Vienna, VA 22182 미국","phone":"+1 202-845-4966","category":"한식 고기구이 레스토랑","lat":38.9213934,"lng":-77.2386704,"source":"google","mapUrl":"https://maps.app.goo.gl/7cUN9J7nDXMQavb77"}],"hasPlaceInfo":true,"collectedAt":"2026-01-07T23:51:41.577Z","failedUrls":[]}
{"videoId":"6Su6xRK8994","places":[{"name":"탉","roadAddress":"서울 강남구 언주로168길 24 1층 102호","jibunAddress":"서울 강남구 신사동 645-18","phone":"02-461-1025","category":"한식","lat":"37.5260055211346","lng":"127.0355677151","debug_container_text":"도로명서울 강남구 언주로168길 24 1층 102호복사\n지번서울 강남구 신사동 645-18복사\n우편번호\n우편번호\n06020복사\n안내 레이어 닫기","source":"naver","mapUrl":"https://naver.me/FjCGuHHm","placeId":"2057342168"}],"hasPlaceInfo":true,"collectedAt":"2026-01-07T23:51:28.993Z","failedUrls":[]}
{"videoId":"nxJt8jHg5kI","places":[{"name":"NUBIANI - Koreatown","roadAddress":"315 5th Ave #3FL, New York, NY 10016 미국","phone":"+1 917-623-0807","category":"한식 고기구이 레스토랑","lat":40.7433904,"lng":-73.9856558,"source":"google","mapUrl":"https://maps.app.goo.gl/hyKRKp35PJfdPYtA9"},{"name":"Kisa","roadAddress":"205 Allen St, New York, NY 10002 미국","phone":null,"category":"한식당","lat":40.7228416,"lng":-73.991562,"source":"google","mapUrl":"https://maps.app.goo.gl/PkNrU6tQGsJEKUkU8"},{"name":"Kiwa Korean Grill","roadAddress":"21438 Epicerie Plaza, Sterling, VA 20164 미국","phone":"+1 571-375-7121","category":"한식 고기구이 레스토랑","lat":39.0237354,"lng":-77.3969645,"source":"google","mapUrl":"https://maps.app.goo.gl/CUWMQnGeGZe9Qspn8"}],"hasPlaceInfo":true,"collectedAt":"2026-01-07T23:52:09.758Z","failedUrls":[]}
{"videoId":"uYH2dw8hdms","places":[{"name":"오코메","roadAddress":"부산 수영구 남천바다로 34-8 1층","jibunAddress":"부산 수영구 남천동 3-26","phone":"0507-1486-2151","category":"일식당","lat":35.1483154,"lng":129.1137813,"debug_container_text":"도로명부산 수영구 남천바다로 34-8 1층복사\n지번부산 수영구 남천동 3-26복사\n우편번호\n우편번호\n48304복사\n안내 레이어 닫기","source":"naver","mapUrl":"https://naver.me/Ig4ui3N1","placeId":"2008174562"},{"name":"동경밥상 본점","roadAddress":"부산 수영구 남천바다로 34-6 1층","jibunAddress":"부산 수영구 남천동 3-25","phone":"0507-1320-1428","category":"덮밥","lat":"35.1483802319894","lng":"129.113870147224","debug_container_text":"도로명부산 수영구 남천바다로 34-6 1층복사\n지번부산 수영구 남천동 3-25복사\n우편번호\n우편번호\n48304복사\n안내 레이어 닫기","source":"naver","mapUrl":"https://naver.me/GbDqySii","placeId":"1520243018"}],"hasPlaceInfo":true,"collectedAt":"2026-01-07T23:51:55.230Z","failedUrls":[]}
{"videoId":"x0Inhsf9e90","places":[{"name":"부일숯불갈비","roadAddress":"서울 영등포구 영중로6길 23-8","jibunAddress":"서울 영등포구 영등포동3가 23-11","phone":"02-2636-9462","category":"육류,고기요리","lat":"37.51814582607549","lng":"126.90863540904311","debug_container_text":"도로명서울 영등포구 영중로6길 23-8복사\n지번서울 영등포구 영등포동3가 23-11복사\n우편번호\n우편번호\n07304복사\n안내 레이어 닫기","source":"naver","mapUrl":"https://naver.me/xprEUczZ","placeId":"18560835"}],"hasPlaceInfo":true,"collectedAt":"2026-01-07T23:52:21.974Z","failedUrls":[]}
{"videoId":"tc-ap1wcxZg","places":[{"name":"Yakiniku Sanzenri Honten","roadAddress":"일본 〒130-0013 Tokyo, Sumida City, Kinshi, 4 Chome−14−9 チグサビル １Ｆ","phone":"+81 50-5448-3726","category":"야키니쿠 전문식당","lat":35.6965458,"lng":139.8144908,"source":"google","mapUrl":"https://maps.app.goo.gl/jFSfYyjgVVFN4Jus6"}],"hasPlaceInfo":true,"collectedAt":"2026-01-07T23:52:19.828Z","failedUrls":[]}
{"videoId":"f4FPQ2lBLno","places":[{"name":"요로니쿠","roadAddress":"일본 〒107-0062 Tokyo, Minato City, Minamiaoyama, 6 Chome−6−22 LunaRossa南青山 B1","phone":"+81 3-3498-4629","category":"야키니쿠 전문식당","lat":35.6602505,"lng":139.7149904,"source":"google","mapUrl":"https://maps.app.goo.gl/sPv1US8JLm4XLHQD6"}],"hasPlaceInfo":true,"collectedAt":"2026-01-07T23:52:33.189Z","failedUrls":[]}
{"videoId":"srYHakm1hzE","places":[{"name":"Yakiniku Hodori Yōga","roadAddress":"Sky Heights Yoga, 2 Chome-28-19 Yoga, Setagaya City, Tokyo 158-0097 일본","phone":"+81 3-3707-3829","category":"야키니쿠 전문식당","lat":35.6247843,"lng":139.6347521,"source":"google","mapUrl":"https://maps.app.goo.gl/ShyjPX9brZZiAziB8"},{"name":"스타미나엔","roadAddress":"3 Chome-13-4 Shikahama, Adachi City, Tokyo 123-0864 일본","phone":"+81 3-3897-0416","category":"야키니쿠 전문식당","lat":35.7799307,"lng":139.7498251,"source":"google","mapUrl":"https://maps.app.goo.gl/U95hVU2XZzrFJp517"}],"hasPlaceInfo":true,"collectedAt":"2026-01-07T23:52:41.222Z","failedUrls":[]}
{"videoId":"qDG3auuSb1E","places":[{"name":"사나이식당 부천상동본점","roadAddress":"경기 부천시 원미구 길주로77번길 19-6 중앙프라자 103호, 104호","jibunAddress":"경기 부천시 원미구 상동 532-17","phone":"0507-1356-9578","category":"육류,고기요리","lat":"37.506880198511","lng":"126.750846561287","debug_container_text":"도로명경기 부천시 원미구 길주로77번길 19-6 중앙프라자 103호, 104호복사\n지번경기 부천시 원미구 상동 532-17복사\n우편번호\n우편번호\n14543복사\n안내 레이어 닫기","source":"naver","mapUrl":"https://naver.me/Fzs8WVJ4","placeId":"34718884"}],"hasPlaceInfo":true,"collectedAt":"2026-01-07T23:52:47.881Z","failedUrls":[]}
{"videoId":"ADzm3H2lVmY","places":[{"name":"골목집숯불갈비","roadAddress":"서울 도봉구 노해로63길 51 상아프라자","jibunAddress":"서울 도봉구 창동 320-1","phone":"02-995-2025","category":"육류,고기요리","lat":"37.6526297203407","lng":"127.044621150632","debug_container_text":"도로명서울 도봉구 노해로63길 51 상아프라자복사\n지번서울 도봉구 창동 320-1복사\n우편번호\n우편번호\n01403복사\n안내 레이어 닫기","source":"naver","mapUrl":"https://naver.me/5apQn5PW","placeId":"20831745"}],"hasPlaceInfo":true,"collectedAt":"2026-01-07T23:52:57.707Z","failedUrls":[]}
{"videoId":"6bZ-rl52dko","places":[{"name":"일미집 미아사거리 본점","roadAddress":"서울 강북구 숭인로 65-3","jibunAddress":"서울 강북구 미아동 465-46","phone":"02-987-3055","category":"육류,고기요리","lat":"37.61268308933343","lng":"127.02897191771599","debug_container_text":"도로명서울 강북구 숭인로 65-3복사\n지번서울 강북구 미아동 465-46복사\n우편번호\n우편번호\n01211복사\n안내 레이어 닫기","source":"naver","mapUrl":"https://naver.me/57V6gPmx","placeId":"20290117"}],"hasPlaceInfo":true,"collectedAt":"2026-01-07T23:53:05.941Z","failedUrls":[]}
{"videoId":"lU7d9LNJrBY","places":[{"name":"제주목장","roadAddress":"서울 금천구 가산로 85","jibunAddress":"서울 금천구 독산동 297-1","phone":"02-837-3037","category":"한식","lat":"37.47361897604203","lng":"126.89455614919538","debug_container_text":"도로명서울 금천구 가산로 85복사\n지번서울 금천구 독산동 297-1복사\n우편번호\n우편번호\n08522복사\n안내 레이어 닫기","source":"naver","mapUrl":"https://naver.me/FvEjIK39","placeId":"1198264655"}],"hasPlaceInfo":true,"collectedAt":"2026-01-07T23:53:03.825Z","failedUrls":[]}
{"videoId":"ulGBU1BpKjM","places":[{"name":"민들레화로","roadAddress":"경기 오산시 외삼미로 7 민들레화로","jibunAddress":"경기 오산시 외삼미동 426-4","phone":"0507-1424-3398","category":"돼지고기구이","lat":"37.1903860521973","lng":"127.052871262268","debug_container_text":"도로명경기 오산시 외삼미로 7 민들레화로복사\n지번경기 오산시 외삼미동 426-4복사\n우편번호\n우편번호\n18111복사\n안내 레이어 닫기","source":"naver","mapUrl":"https://naver.me/xY4FVzVZ","placeId":"37801052"}],"hasPlaceInfo":true,"collectedAt":"2026-01-07T23:53:14.232Z","failedUrls":[]}
{"videoId":"vLXGyLgKcZw","places":[{"name":"뽈구이복 본점","roadAddress":"경기 포천시 소흘읍 태봉로166번길 19-13","jibunAddress":"경기 포천시 소흘읍 송우리 726-45","phone":"031-544-5085","category":"돼지고기구이","lat":"37.830696565882","lng":"127.141345348678","debug_container_text":"도로명경기 포천시 소흘읍 태봉로166번길 19-13복사\n지번경기 포천시 소흘읍 송우리 726-45복사\n우편번호\n우편번호\n11175복사\n안내 레이어 닫기","source":"naver","mapUrl":"https://naver.me/x5GnA37N","placeId":"38284711"}],"hasPlaceInfo":true,"collectedAt":"2026-01-07T23:53:12.117Z","failedUrls":[]}
{"videoId":"nKYYseLDpu8","places":[{"name":"양주골화로구이","roadAddress":"경기 남양주시 진건읍 사릉로441번길 36-9 양주골화로구이","jibunAddress":"경기 남양주시 진건읍 진관리 132","phone":"010-4102-1918","category":"육류,고기요리","lat":"37.6588729175017","lng":"127.172533785182","source":"naver","mapUrl":"https://naver.me/F3eqeTRZ","placeId":"17867835"}],"hasPlaceInfo":true,"collectedAt":"2026-01-07T23:53:22.445Z","failedUrls":[]}
{"videoId":"KL3FaNflHQI","places":[{"name":"한우마을","roadAddress":"서울 동대문구 한천로17길 21","jibunAddress":"서울 동대문구 답십리동 4-13","phone":"010-3940-9462","category":"소고기구이","lat":"37.5698204941299","lng":"127.062918362845","source":"naver","mapUrl":"https://naver.me/xAFwWzxu","placeId":"20942434"}],"hasPlaceInfo":true,"collectedAt":"2026-01-07T23:53:33.132Z","failedUrls":[]}
{"videoId":"33YF_oR5rHQ","places":[{"name":"육일돈 분당수내본점","roadAddress":"경기 성남시 분당구 발이봉로3번길 8-1 1층","jibunAddress":"경기 성남시 분당구 수내동 89-6","phone":"0507-1416-3045","category":"육류,고기요리","lat":"37.3663780850212","lng":"127.127349789749","debug_container_text":"도로명경기 성남시 분당구 발이봉로3번길 8-1 1층복사\n지번경기 성남시 분당구 수내동 89-6복사\n우편번호\n우편번호\n13601복사\n안내 레이어 닫기","source":"naver","mapUrl":"https://naver.me/FJimSEFV","placeId":"1915201544"}],"hasPlaceInfo":true,"collectedAt":"2026-01-07T23:53:28.985Z","failedUrls":[]}
{"videoId":"ixd9z6NKk0g","places":[{"name":"골목흑돼지","roadAddress":"서울 종로구 종로 377-3 서림빌딩","jibunAddress":"서울 종로구 숭인동 177-2","phone":"02-741-6625","category":"돼지고기구이","lat":"37.5744631973157","lng":"127.019276058615","debug_container_text":"도로명서울 종로구 종로 377-3 서림빌딩복사\n지번서울 종로구 숭인동 177-2복사\n우편번호\n우편번호\n03112복사\n안내 레이어 닫기","source":"naver","mapUrl":"https://naver.me/xxY2Hzrg","placeId":"37233589"}],"hasPlaceInfo":true,"collectedAt":"2026-01-07T23:53:41.938Z","failedUrls":[]}
{"videoId":"GYUpqnI6J4w","places":[{"name":"노란돼지","roadAddress":"서울 동작구 동작대로7길 97 1층","jibunAddress":"서울 동작구 사당동 1045-7","phone":"0507-1409-8421","category":"육류,고기요리","lat":"37.4771139187372","lng":"126.977873981531","debug_container_text":"도로명서울 동작구 동작대로7길 97 1층복사\n지번서울 동작구 사당동 1045-7복사\n우편번호\n우편번호\n07024복사\n안내 레이어 닫기","source":"naver","mapUrl":"https://naver.me/xa5Woh01","placeId":"1237548287"}],"hasPlaceInfo":true,"collectedAt":"2026-01-07T23:53:39.837Z","failedUrls":[]}
{"videoId":"GJtYUqNskcA","places":[{"name":"청수장","roadAddress":"서울 성북구 정릉로 237-2","jibunAddress":"서울 성북구 정릉동 416-27","phone":"0507-1323-6176","category":"한식","lat":"37.6053178643889","lng":"127.010749582839","debug_container_text":"도로명서울 성북구 정릉로 237-2복사\n지번서울 성북구 정릉동 416-27복사\n우편번호\n우편번호\n02710복사\n안내 레이어 닫기","source":"naver","mapUrl":"https://naver.me/GubJUrnE","placeId":"31531465"}],"hasPlaceInfo":true,"collectedAt":"2026-01-07T23:53:52.956Z","failedUrls":[]}
{"videoId":"nGJRJMZlz2k","places":[{"name":"황주생고기","roadAddress":"경기 동두천시 생연로 142","jibunAddress":"경기 동두천시 생연동 823-19","phone":"031-865-2026","category":"소고기구이","lat":"37.9050658236809","lng":"127.051977603705","debug_container_text":"도로명경기 동두천시 생연로 142복사\n지번경기 동두천시 생연동 823-19복사\n우편번호\n우편번호\n11328복사\n안내 레이어 닫기","source":"naver","mapUrl":"https://naver.me/5bVwe6wK","placeId":"13391481"}],"hasPlaceInfo":true,"collectedAt":"2026-01-07T23:53:48.606Z","failedUrls":[]}
{"videoId":"dtpOfukqyfw","places":[{"name":"광시","roadAddress":"서울 서초구 효령로60길 15 1층","jibunAddress":"서울 서초구 서초동 1444-2","phone":"02-522-9263","category":"소고기구이","lat":"37.4846523389385","lng":"127.018783734857","debug_container_text":"도로명서울 서초구 효령로60길 15 1층복사\n지번서울 서초구 서초동 1444-2복사\n우편번호\n우편번호\n06721복사\n안내 레이어 닫기","source":"naver","mapUrl":"https://naver.me/xIeSN4TN","placeId":"20724798"}],"hasPlaceInfo":true,"collectedAt":"2026-01-07T23:54:01.704Z","failedUrls":[]}
{"videoId":"AR_2_JLNV0g","places":[{"name":"강물나라연탄삼겹살","roadAddress":"경기 파주시 탄현면 소금쟁이길 57","jibunAddress":"경기 파주시 탄현면 법흥리 1593-8","phone":"031-945-1588","category":"육류,고기요리","lat":"37.7694278880212","lng":"126.70246694193202","debug_container_text":"도로명경기 파주시 탄현면 소금쟁이길 57복사\n지번경기 파주시 탄현면 법흥리 1593-8복사\n우편번호\n우편번호\n10861복사\n안내 레이어 닫기","source":"naver","mapUrl":"https://naver.me/xmxR9g6n","placeId":"19185406"}],"hasPlaceInfo":true,"collectedAt":"2026-01-07T23:53:59.561Z","failedUrls":[]}
{"videoId":"ZkZUsIwGzyM","places":[{"name":"동원소금구이","roadAddress":"경기 김포시 북변로 8-27","jibunAddress":"경기 김포시 북변동 284-9","phone":"031-986-8843","category":"육류,고기요리","lat":"37.6275496268969","lng":"126.710681102305","debug_container_text":"도로명경기 김포시 북변로 8-27복사\n지번경기 김포시 북변동 284-9복사\n우편번호\n우편번호\n10098복사\n안내 레이어 닫기","source":"naver","mapUrl":"https://naver.me/GJTnHR9l","placeId":"18572624"}],"hasPlaceInfo":true,"collectedAt":"2026-01-07T23:54:07.850Z","failedUrls":[]}
{"videoId":"S5GCl4o2p10","places":[{"name":"만복래연탄구이","roadAddress":"경기 남양주시 화도읍 마석로 98-4 1층","jibunAddress":"경기 남양주시 화도읍 마석우리 417","phone":"031-511-2850","category":"한식","lat":"37.6593182591643","lng":"127.305040940681","debug_container_text":"도로명경기 남양주시 화도읍 마석로 98-4 1층복사\n지번경기 남양주시 화도읍 마석우리 417복사\n우편번호\n우편번호\n12162복사\n안내 레이어 닫기","source":"naver","mapUrl":"https://naver.me/FA2FUJny","placeId":"38552424"}],"hasPlaceInfo":true,"collectedAt":"2026-01-07T23:54:16.457Z","failedUrls":[]}
{"videoId":"MasEPFrtMDk","places":[{"name":"동경밥상 본점","roadAddress":"부산 수영구 남천바다로 34-6 1층","jibunAddress":"부산 수영구 남천동 3-25","phone":"0507-1320-1428","category":"덮밥","lat":"35.1483802319894","lng":"129.113870147224","debug_container_text":"도로명부산 수영구 남천바다로 34-6 1층복사\n지번부산 수영구 남천동 3-25복사\n우편번호\n우편번호\n48304복사\n안내 레이어 닫기","source":"naver","mapUrl":"https://naver.me/GbDqySii","placeId":"1520243018"}],"hasPlaceInfo":true,"collectedAt":"2026-01-07T23:54:14.274Z","failedUrls":[]}
{"videoId":"nw55p-dEw9E","places":[{"name":"비쇼쿠 광안점","roadAddress":"부산 수영구 광안해변로344번길 9-5 1층","jibunAddress":"부산 수영구 민락동 110-40","phone":"0507-1387-8895","category":"육류,고기요리","lat":"35.15545453874157","lng":"129.1309268063325","debug_container_text":"도로명부산 수영구 광안해변로344번길 9-5 1층복사\n지번부산 수영구 민락동 110-40복사\n우편번호\n우편번호\n48280복사\n안내 레이어 닫기","source":"naver","mapUrl":"https://naver.me/xWTn8HiD","placeId":"1951802432"}],"hasPlaceInfo":true,"collectedAt":"2026-01-07T23:54:24.650Z","failedUrls":[]}
{"videoId":"80XRc5B_DmI","places":[{"name":"칠흑 가양등촌점","roadAddress":"서울 강서구 화곡로66길 20 102동 1층 103호","jibunAddress":"서울 강서구 등촌동 640-2","phone":"0507-1491-7706","category":"곰탕,설렁탕","lat":"37.5577358736437","lng":"126.854782862525","debug_container_text":"도로명서울 강서구 화곡로66길 20 102동 1층 103호복사\n지번서울 강서구 등촌동 640-2복사\n우편번호\n우편번호\n07568복사\n안내 레이어 닫기","source":"naver","mapUrl":"https://naver.me/xa5tc8i8","placeId":"1963188795"}],"hasPlaceInfo":true,"collectedAt":"2026-01-07T23:54:22.514Z","failedUrls":[]}
{"videoId":"wFbGVi8NEPo","places":[{"name":"태원정육식당","roadAddress":"경기 안양시 만안구 박달로507번길 19","jibunAddress":"경기 안양시 만안구 박달동 79-4","phone":"0507-1344-9236","category":"정육식당","lat":"37.4035047475812","lng":"126.908713795692","debug_container_text":"도로명경기 안양시 만안구 박달로507번길 19복사\n지번경기 안양시 만안구 박달동 79-4복사\n우편번호\n우편번호\n13984복사\n안내 레이어 닫기","source":"naver","mapUrl":"https://naver.me/Gub1BAcs","placeId":"37633880"}],"hasPlaceInfo":true,"collectedAt":"2026-01-07T23:54:32.681Z","failedUrls":[]}
{"videoId":"MZ5rmxuuBk4","places":[{"name":"함평천지생고기전문","roadAddress":"서울 관악구 난곡로63가길 1","jibunAddress":"서울 관악구 미성동 1475-30","phone":"02-837-3930","category":"육류,고기요리","lat":"37.4810033404196","lng":"126.914218377691","debug_container_text":"도로명서울 관악구 난곡로63가길 1복사\n지번서울 관악구 미성동 1475-30복사\n우편번호\n우편번호\n08771복사\n안내 레이어 닫기","source":"naver","mapUrl":"https://naver.me/GtUDyTTX","placeId":"19985310"}],"hasPlaceInfo":true,"collectedAt":"2026-01-07T23:54:30.568Z","failedUrls":[]}
{"videoId":"4UqAmTjhBKs","places":[{"name":"판교화로","roadAddress":"경기 성남시 분당구 운중로125번길 4-5 1층","jibunAddress":"경기 성남시 분당구 운중동 976-4","phone":"0507-1400-0764","category":"돼지고기구이","lat":"37.3922923194305","lng":"127.077568843788","debug_container_text":"도로명경기 성남시 분당구 운중로125번길 4-5 1층복사\n지번경기 성남시 분당구 운중동 976-4복사\n우편번호\n우편번호\n13461복사\n안내 레이어 닫기","source":"naver","mapUrl":"https://naver.me/xY4sdEBz","placeId":"1443449620"}],"hasPlaceInfo":true,"collectedAt":"2026-01-07T23:54:40.916Z","failedUrls":[]}
{"videoId":"JTPsh5sSkck","places":[{"name":"마초스테이크 본점","roadAddress":"서울 강남구 논현로159길 10 지상1층 102호","jibunAddress":"서울 강남구 신사동 567-23","phone":"0507-1388-1340","category":"스테이크,립","lat":"37.5231163961185","lng":"127.027338798658","debug_container_text":"도로명서울 강남구 논현로159길 10 지상1층 102호복사\n지번서울 강남구 신사동 567-23복사\n우편번호\n우편번호\n06031복사\n안내 레이어 닫기","source":"naver","mapUrl":"https://naver.me/xDJguOUk","placeId":"1981347065"}],"hasPlaceInfo":true,"collectedAt":"2026-01-07T23:54:38.777Z","failedUrls":[]}
{"videoId":"0EteL9ItdOc","places":[{"name":"풍류각","roadAddress":"서울 마포구 월드컵로 33 1층","jibunAddress":"서울 마포구 합정동 426-5","phone":"0507-1425-9279","category":"육류,고기요리","lat":"37.55234039831552","lng":"126.91193442063597","debug_container_text":"도로명서울 마포구 월드컵로 33 1층복사\n지번서울 마포구 합정동 426-5복사\n우편번호\n우편번호\n04023복사\n안내 레이어 닫기","source":"naver","mapUrl":"https://naver.me/5MVOe96s","placeId":"1655037566"}],"hasPlaceInfo":true,"collectedAt":"2026-01-07T23:54:47.562Z","failedUrls":[]}
{"videoId":"kKcTAlq6zOk","places":[{"name":"태백산생고기","roadAddress":"서울 은평구 연서로 205 1층 태백산생고기","jibunAddress":"서울 은평구 갈현동 460-17","phone":"0507-1460-0413","category":"소고기구이","lat":"37.6170186191238","lng":"126.91883881388843","debug_container_text":"도로명서울 은평구 연서로 205 1층 태백산생고기복사\n지번서울 은평구 갈현동 460-17복사\n우편번호\n우편번호\n03333복사\n안내 레이어 닫기","source":"naver","mapUrl":"https://naver.me/502MCL6U","placeId":"694411058"}],"hasPlaceInfo":true,"collectedAt":"2026-01-07T23:54:56.616Z","failedUrls":[]}
{"videoId":"-yibFbw8PPU","places":[{"name":"사루카메","roadAddress":"서울 마포구 연남로 15 1층","jibunAddress":"서울 마포구 연남동 566-67","phone":null,"category":"일본식라면","lat":"37.5610362571878","lng":"126.922705882899","debug_container_text":"도로명서울 마포구 연남로 15 1층복사\n지번서울 마포구 연남동 566-67복사\n우편번호\n우편번호\n03990복사\n안내 레이어 닫기","source":"naver","mapUrl":"https://naver.me/F1ry1mqe","placeId":"1763607050"}],"hasPlaceInfo":true,"collectedAt":"2026-01-07T23:54:54.445Z","failedUrls":[]}
{"videoId":"3fLce25b7DI","places":[{"name":"식신통삼겹구이","roadAddress":"울산 남구 화합로194번길 31 1층","jibunAddress":"울산 남구 삼산동 1557-6","phone":"0507-1352-1556","category":"돼지고기구이","lat":"35.5419182160405","lng":"129.343068035056","debug_container_text":"도로명울산 남구 화합로194번길 31 1층복사\n지번울산 남구 삼산동 1557-6복사\n우편번호\n우편번호\n44713복사\n안내 레이어 닫기","source":"naver","mapUrl":"https://naver.me/GTnhHiAI","placeId":"1285818031"}],"hasPlaceInfo":true,"collectedAt":"2026-01-07T23:55:05.527Z","failedUrls":[]}
{"videoId":"UveQC4enN1A","places":[{"name":"함양집","roadAddress":"울산 남구 삼산로228번길 19","jibunAddress":"울산 남구 달동 1263-13","phone":"052-260-9060","category":"비빔밥","lat":"35.5364901727523","lng":"129.332852001247","debug_container_text":"도로명울산 남구 삼산로228번길 19복사\n지번울산 남구 달동 1263-13복사\n우편번호\n우편번호\n44718복사\n안내 레이어 닫기","source":"naver","mapUrl":"https://naver.me/FdCkqndS","placeId":"16406047"}],"hasPlaceInfo":true,"collectedAt":"2026-01-07T23:55:03.376Z","failedUrls":[]}
{"videoId":"GNAcSjUrSBc","places":[{"name":"혼돈","roadAddress":"서울 강남구 언주로115길 15 101호","jibunAddress":"서울 강남구 논현동 230-1","phone":"0507-1336-8984","category":"돈가스","lat":"37.5098793983616","lng":"127.035451481594","debug_container_text":"도로명서울 강남구 언주로115길 15 101호복사\n지번서울 강남구 논현동 230-1복사\n우편번호\n우편번호\n06108복사\n안내 레이어 닫기","source":"naver","mapUrl":"https://naver.me/FIfwEyGI","placeId":"1659963886"}],"hasPlaceInfo":true,"collectedAt":"2026-01-07T23:55:13.940Z","failedUrls":[]}
{"videoId":"ZvDg-mE5Ztk","places":[{"name":"야끼니꾸 만게츠 울산 삼산점","roadAddress":"울산 남구 달삼로 53 1층","jibunAddress":"울산 남구 달동 1261-8","phone":"0507-1323-9596","category":"육류,고기요리","lat":"35.5364197895131","lng":"129.334904794002","debug_container_text":"도로명울산 남구 달삼로 53 1층복사\n지번울산 남구 달동 1261-8복사\n우편번호\n우편번호\n44718복사\n안내 레이어 닫기","source":"naver","mapUrl":"https://naver.me/xHgdBLdc","placeId":"1338401788"}],"hasPlaceInfo":true,"collectedAt":"2026-01-07T23:55:11.765Z","failedUrls":[]}
{"videoId":"1IUF2ZOZQNE","places":[{"name":"몯갈비&숯불불고기","roadAddress":"인천 서구 신석로 64","jibunAddress":"인천 서구 석남동 524-11","phone":"0507-1368-5405","category":"육류,고기요리","lat":"37.5097893956786","lng":"126.668975604202","debug_container_text":"도로명인천 서구 신석로 64복사\n지번인천 서구 석남동 524-11복사\n우편번호\n우편번호\n22789복사\n안내 레이어 닫기","source":"naver","mapUrl":"https://naver.me/Fio7F5Wn","placeId":"1272786929"}],"hasPlaceInfo":true,"collectedAt":"2026-01-07T23:55:21.919Z","failedUrls":[]}
{"videoId":"SPCxM_fnZPw","places":[{"name":"공간 수련","roadAddress":"서울 성동구 광나루로11길 3 2층","jibunAddress":"서울 성동구 송정동 66-102","phone":"0507-1419-5915","category":"육류,고기요리","lat":"37.5485277265054","lng":"127.065328936316","debug_container_text":"도로명서울 성동구 광나루로11길 3 2층복사\n지번서울 성동구 송정동 66-102복사\n우편번호\n우편번호\n04801복사\n안내 레이어 닫기","source":"naver","mapUrl":"https://naver.me/GtUwvFFd","placeId":"1116931457"}],"hasPlaceInfo":true,"collectedAt":"2026-01-07T23:55:19.807Z","failedUrls":[]}
{"videoId":"lctP2NRzDzs","places":[{"name":"마포소금구이 중동점","roadAddress":"경기 부천시 원미구 부흥로 205","jibunAddress":"경기 부천시 원미구 중동 597-5","phone":"032-662-6900","category":"육류,고기요리","lat":"37.496157972039654","lng":"126.76567917166615","debug_container_text":"도로명경기 부천시 원미구 부흥로 205복사\n지번경기 부천시 원미구 중동 597-5복사\n우편번호\n우편번호\n14585복사\n안내 레이어 닫기","source":"naver","mapUrl":"https://naver.me/GZZuyoAV","placeId":"31794036"}],"hasPlaceInfo":true,"collectedAt":"2026-01-07T23:55:30.727Z","failedUrls":[]}
{"videoId":"hDA7lSTX6Pg","places":[{"name":"한옥집 숯불갈비 서울본점","roadAddress":"서울 금천구 시흥대로141길 71 1층","jibunAddress":"서울 금천구 독산동 144-10","phone":"0507-1335-8592","category":"육류,고기요리","lat":"37.47606435528151","lng":"126.89767525117989","debug_container_text":"도로명서울 금천구 시흥대로141길 71 1층복사\n지번서울 금천구 독산동 144-10복사\n우편번호\n우편번호\n08531복사\n안내 레이어 닫기","source":"naver","mapUrl":"https://naver.me/FN7pL4ch","placeId":"1044588978"}],"hasPlaceInfo":true,"collectedAt":"2026-01-07T23:55:28.612Z","failedUrls":[]}
{"videoId":"IrLxwOzS--g","places":[{"name":"홍지로스 본점","roadAddress":"서울 종로구 삼일대로 428 낙원상가 1층 (낙원동 아구찜거리)","jibunAddress":"서울 종로구 낙원동 288 낙원상가 1층 ( 아구찜거리)","phone":"0507-1377-0115","category":"육류,고기요리","lat":37.5729668,"lng":126.9881975,"debug_container_text":"도로명서울 종로구 삼일대로 428 낙원상가 1층 (낙원동 아구찜거리)복사\n지번서울 종로구 낙원동 288 낙원상가 1층 ( 아구찜거리)복사\n우편번호\n우편번호\n03140복사\n안내 레이어 닫기","source":"naver","mapUrl":"https://naver.me/FSwoif0z","placeId":"1663507897"}],"hasPlaceInfo":true,"collectedAt":"2026-01-07T23:55:39.715Z","failedUrls":[]}
{"videoId":"_vjqNd5TdFg","places":[{"name":"백랑","roadAddress":"서울 용산구 한강대로15길 23 1층","jibunAddress":"서울 용산구 한강로3가 40-171","phone":"0507-1388-2840","category":"국밥","lat":"37.52607542255891","lng":"126.963202539848","debug_container_text":"도로명서울 용산구 한강대로15길 23 1층복사\n지번서울 용산구 한강로3가 40-171복사\n우편번호\n우편번호\n04379복사\n안내 레이어 닫기","source":"naver","mapUrl":"https://naver.me/FqWtRxt2","placeId":"1358453703"}],"hasPlaceInfo":true,"collectedAt":"2026-01-07T23:55:37.387Z","failedUrls":[]}
{"videoId":"3pK0ttGttFA","places":[{"name":"고기마당","roadAddress":"경기 수원시 팔달구 매산로 2-11","jibunAddress":"경기 수원시 팔달구 매산로1가 57-110","phone":"031-258-9290","category":"돼지고기구이","lat":"37.26670844381331","lng":"127.00247238406318","debug_container_text":"도로명경기 수원시 팔달구 매산로 2-11복사\n지번경기 수원시 팔달구 매산로1가 57-110복사\n우편번호\n우편번호\n16461복사\n안내 레이어 닫기","source":"naver","mapUrl":"https://naver.me/GWeDXcqM","placeId":"20984454"}],"hasPlaceInfo":true,"collectedAt":"2026-01-07T23:55:51.745Z","failedUrls":[]}
{"videoId":"H5YkExOunTQ","places":[{"name":"Yakiniku Kaneko","roadAddress":"일본 〒150-0033 Tokyo, Shibuya, Sarugakucho, 17−17 1F","phone":"+81 3-6415-4129","category":"야키니쿠 전문식당","lat":35.6497623,"lng":139.6964167,"source":"google","mapUrl":"https://maps.app.goo.gl/nhomueQiBtAH132d8"}],"hasPlaceInfo":true,"collectedAt":"2026-01-07T23:55:49.620Z","failedUrls":[]}
{"videoId":"FKsOdHgjdGU","places":[{"name":"스미비야키 유우지","roadAddress":"11-11-1 Udagawacho, Shibuya, Tokyo 150-0042 일본","phone":"+81 3-3464-6448","category":"야키니쿠 전문식당","lat":35.6625792,"lng":139.6947494,"source":"google","mapUrl":"https://maps.app.goo.gl/5q3CZyoidasjpAsc8"}],"hasPlaceInfo":true,"collectedAt":"2026-01-07T23:56:02.597Z","failedUrls":[]}
{"videoId":"RMk_vP0thwA","places":[{"name":"스시 아츠가","roadAddress":"일본 〒810-0004 Fukuoka, Chuo Ward, Watanabedori, 1 Chome−10−1 四十川ビル","phone":"+81 92-733-0122","category":"스시/초밥집","lat":33.5836034,"lng":130.4032094,"source":"google","mapUrl":"https://maps.app.goo.gl/qWwH2Q221e1cJXms9"},{"name":"마루타케 주방상사","roadAddress":"1 Chome-14-8 Haruyoshi, Chuo Ward, Fukuoka, 810-0003 일본","phone":"+81 92-718-0505","category":"주방용품점","lat":33.5841285,"lng":130.4038304,"source":"google","mapUrl":"https://maps.app.goo.gl/TJg1xJnDiFbNSfsR7"},{"name":"커피카운티 후쿠오카점","roadAddress":"1 Chome-21-21 Takasago, Chuo Ward, Fukuoka, 810-0011 일본","phone":"+81 92-753-8321","category":"커피숍/커피 전문점","lat":33.5802641,"lng":130.4030796,"source":"google","mapUrl":"https://maps.app.goo.gl/2LbR3q8SNw6URhzR8"},{"name":"야키토리 마코","roadAddress":"일본 〒810-0022 Fukuoka, Chuo Ward, Yakuin, 2 Chome−14−18 2F","phone":"+81 92-214-7053","category":"꼬치구이 전문식당","lat":33.5767071,"lng":130.3912841,"source":"google","mapUrl":"https://maps.app.goo.gl/G5hfy5nAvttBXgwT7"}],"hasPlaceInfo":true,"collectedAt":"2026-01-07T23:56:26.724Z","failedUrls":[]}
{"videoId":"SfU0EWaN7_A","places":[{"name":"멘야 이시이","roadAddress":"일본 〒812-0011 Fukuoka, Hakata Ward, Hakata Ekimae, 3 Chome−9−5 チサンマンション第一博多 1階","phone":null,"category":"우동 전문점","lat":33.5879858,"lng":130.4097559,"source":"google","mapUrl":"https://maps.app.goo.gl/FXuFyvCQmtaAdUsT9"},{"name":"로바타 산코바시","roadAddress":"3 Chome-22-17 Haruyoshi, Chuo Ward, Fukuoka, 810-0003 일본","phone":"+81 92-712-7373","category":"해산물 요리 전문식당","lat":33.588245,"lng":130.4030669,"source":"google","mapUrl":"https://maps.app.goo.gl/e74eaeZJgb68gzxdA"},{"name":"나노카와 모츠나베","roadAddress":"2 Chome-5-12 Nanokawa, Chuo Ward, Fukuoka, 810-0015 일본","phone":"+81 92-526-6078","category":"일식 내장 냄비 요리 전문점","lat":33.5780254,"lng":130.4050037,"source":"google","mapUrl":"https://maps.app.goo.gl/PsgG15FJsceC6Am57"}],"hasPlaceInfo":true,"collectedAt":"2026-01-07T23:56:54.125Z","failedUrls":[]}
{"videoId":"6WlS5PD91nw","places":[{"name":"水炊き 新三浦 博多本店","roadAddress":"21-12 Sekijomachi, Hakata Ward, Fukuoka, 812-0032 일본","phone":"+81 92-291-0821","category":"핫팟 레스토랑","lat":33.5964775,"lng":130.3967245,"source":"google","mapUrl":"https://maps.app.goo.gl/QLFhydVKrCXRBUUB9"},{"name":"하카타 겐키 잇빠이!!","roadAddress":"일본 〒812-0034 Fukuoka, Hakata Ward, Shimogofukumachi, ４−３１−1","phone":"+81 90-1362-4311","category":"일본라면 전문식당","lat":33.5964775,"lng":130.3967245,"source":"google","mapUrl":"https://maps.app.goo.gl/RLCG8CQqf4EZr7mDA"},{"name":"야키니쿠 스도 하루요시","roadAddress":"3 Chome-12-19 Haruyoshi, Chuo Ward, Fukuoka, 810-0003 일본","phone":"+81 50-3137-1010","category":"야키니쿠 전문식당","lat":33.5888538,"lng":130.4050506,"source":"google","mapUrl":"https://maps.app.goo.gl/kUZZDyPmDU3HhG3f7"}],"hasPlaceInfo":true,"collectedAt":"2026-01-07T23:57:29.352Z","failedUrls":[]}
{"videoId":"Qw-JJE90XyU","places":[{"name":"Yakinikufurusato Danbara Honten【Hiroshima Yakiniku/히로시마 야키니쿠/广岛烤肉/廣島烤肉】","roadAddress":"2 Chome-20-4 Danbara, Minami Ward, Hiroshima, 732-0811 일본","phone":"+81 82-236-3350","category":"야키니쿠 전문식당","lat":34.3861172,"lng":132.4747936,"source":"google","mapUrl":"https://maps.app.goo.gl/FNiSa9xeb9pyuKiL9"},{"name":"夕凪うなぎ","roadAddress":"1-17 Shintenchi, Naka Ward, Hiroshima, 730-0034 일본","phone":"+81 80-6030-5615","category":"민물장어 요리 전문식당","lat":34.3922716,"lng":132.4613293,"source":"google","mapUrl":"https://maps.app.goo.gl/9wRZ9LCGwabysxR4A"}],"hasPlaceInfo":true,"collectedAt":"2026-01-07T23:57:14.428Z","failedUrls":[]}
{"videoId":"6hmx8JjazN4","places":[{"name":"Yakiniku Furusato Saijo |Wagyu","roadAddress":"3 Chome-5-1 Saijochuo, Higashihiroshima, Hiroshima 739-0025 일본","phone":"+81 82-421-0088","category":"야키니쿠 전문식당","lat":34.4144746,"lng":132.7367747,"source":"google","mapUrl":"https://maps.app.goo.gl/Pos7pSRVLYbaCCZeA"},{"name":"ミートファクトリー あんずお肉の工場直売所 西条店","roadAddress":"1518-1 Saijocho Doyomaru, Higashihiroshima, Hiroshima 739-0003 일본","phone":"+81 82-490-3778","category":"정육점","lat":34.428303,"lng":132.7567826,"source":"google","mapUrl":"https://maps.app.goo.gl/JaVmvSmMoqC8qUw6A"},{"name":"とんかつ日刈り","roadAddress":"1518-1 Saijocho Doyomaru, Higashihiroshima, Hiroshima 739-0003 일본","phone":"+81 82-493-7298","category":"돈까스 전문식당","lat":34.428303,"lng":132.7567826,"source":"google","mapUrl":"https://maps.app.goo.gl/mpQk4JmHyMbcbDsx6"},{"name":"니쿠노마스이","roadAddress":"14-１３ Hatchobori, Naka Ward, Hiroshima, 730-0013 일본","phone":"+81 82-227-2983","category":"고기 요리 전문점","lat":34.3945389,"lng":132.4605744,"source":"google","mapUrl":"https://maps.app.goo.gl/ijDd59rYWSr1958d9"}],"hasPlaceInfo":true,"collectedAt":"2026-01-07T23:58:03.613Z","failedUrls":[]}
{"videoId":"NpJ-CwNhQbI","places":[{"name":"Ginza Yakiniku Nikusyo Furusato（wagyu）","roadAddress":"일본 〒104-0061 Tokyo, Chuo City, Ginza, 8 Chome−8−11 博品館ビル ５階","phone":"+81 3-6274-6428","category":"야키니쿠 전문식당","lat":35.6678339,"lng":139.758457,"source":"google","mapUrl":"https://maps.app.goo.gl/LpnibMCzpVA2zo7JA"}],"hasPlaceInfo":true,"collectedAt":"2026-01-07T23:58:19.493Z","failedUrls":[]}
{"videoId":"Skiha_ftNHI","places":[{"name":"양식당더램키친","roadAddress":"서울 강남구 압구정로8길 5 2층","jibunAddress":"서울 강남구 신사동 529-6","phone":"0507-1497-9284","category":"육류,고기요리","lat":"37.5229941884879","lng":"127.021375971317","debug_container_text":"도로명서울 강남구 압구정로8길 5 2층복사\n지번서울 강남구 신사동 529-6복사\n우편번호\n우편번호\n06028복사\n안내 레이어 닫기","source":"naver","mapUrl":"https://naver.me/Fwn7Y72z","placeId":"21029355"}],"hasPlaceInfo":true,"collectedAt":"2026-01-07T23:58:10.367Z","failedUrls":[]}
{"videoId":"8IBcmHesixg","places":[{"name":"브네","roadAddress":"서울 광진구 군자로 70 106호 VENEZ 브네","jibunAddress":"서울 광진구 군자동 362-1","phone":"0507-1307-5794","category":"와인","lat":"37.5493569608526","lng":"127.071024079018","debug_container_text":"도로명서울 광진구 군자로 70 106호 VENEZ 브네복사\n지번서울 광진구 군자동 362-1복사\n우편번호\n우편번호\n05004복사\n안내 레이어 닫기","source":"naver","mapUrl":"https://naver.me/5fPbzt40","placeId":"1580083114"}],"hasPlaceInfo":true,"collectedAt":"2026-01-07T23:58:28.359Z","failedUrls":[]}
{"videoId":"iETPfXvaYfE","places":[{"name":"고우 범계점","roadAddress":"경기 안양시 동안구 평촌대로223번길 36 3층","jibunAddress":"경기 안양시 동안구 호계동 1044","phone":"031-386-0331","category":"이자카야","lat":"37.3910139095848","lng":"126.953655294805","debug_container_text":"도로명경기 안양시 동안구 평촌대로223번길 36 3층복사\n지번경기 안양시 동안구 호계동 1044복사\n우편번호\n우편번호\n14072복사\n안내 레이어 닫기","source":"naver","mapUrl":"https://naver.me/GMWujUWg","placeId":"1052450538"}],"hasPlaceInfo":true,"collectedAt":"2026-01-07T23:58:26.198Z","failedUrls":[]}
{"videoId":"TAnWqbGNglA","places":[{"name":"찬이네주먹고기","roadAddress":"경기 수원시 장안구 대평로90번길 19 수원라이프스포츠센터 1층","jibunAddress":"경기 수원시 장안구 정자동 872-2","phone":"0507-1474-9295","category":"돼지고기구이","lat":"37.2971355059389","lng":"126.99376072239","debug_container_text":"도로명경기 수원시 장안구 대평로90번길 19 수원라이프스포츠센터 1층복사\n지번경기 수원시 장안구 정자동 872-2복사\n우편번호\n우편번호\n16334복사\n안내 레이어 닫기","source":"naver","mapUrl":"https://naver.me/5c2ec4Kd","placeId":"1815845807"}],"hasPlaceInfo":true,"collectedAt":"2026-01-07T23:58:37.104Z","failedUrls":[]}
{"videoId":"8_AfhokGyF8","places":[{"name":"고향왕소금구이","roadAddress":"대구 북구 환성정길 35 1층","jibunAddress":"대구 북구 서변동 890-1","phone":"0507-1476-1698","category":"육류,고기요리","lat":"35.9241906029424","lng":"128.593678943181","debug_container_text":"도로명대구 북구 환성정길 35 1층복사\n지번대구 북구 서변동 890-1복사\n우편번호\n우편번호\n41477복사\n안내 레이어 닫기","source":"naver","mapUrl":"https://naver.me/xoYXHyjj","placeId":"16062857"}],"hasPlaceInfo":true,"collectedAt":"2026-01-07T23:58:34.923Z","failedUrls":[]}
{"videoId":"J31TslQ2wC0","places":[{"name":"송원생고기육회","roadAddress":"대구 수성구 신천동로88길 69","jibunAddress":"대구 수성구 수성동4가 1186-13","phone":"053-744-8856","category":"육류,고기요리","lat":"35.8603328154983","lng":"128.61280819467","debug_container_text":"도로명대구 수성구 신천동로88길 69복사\n지번대구 수성구 수성동4가 1186-13복사\n우편번호\n우편번호\n42007복사\n안내 레이어 닫기","source":"naver","mapUrl":"https://naver.me/xNmtllDq","placeId":"33462498"}],"hasPlaceInfo":true,"collectedAt":"2026-01-07T23:58:45.896Z","failedUrls":[]}
{"videoId":"Og2ZM-nF2c8","places":[{"name":"녹돼야지 송도타임스페이스 본점","roadAddress":"인천 연수구 하모니로 158 타임스페이스 A동 1층 녹돼야지 송도타임스페이스 본점","jibunAddress":"인천 연수구 송도동 8-21","phone":"0507-1377-8326","category":"육류,고기요리","lat":"37.38312354252111","lng":"126.64235724101351","debug_container_text":"도로명인천 연수구 하모니로 158 타임스페이스 A동 1층 녹돼야지 송도타임스페이스 본점복사\n지번인천 연수구 송도동 8-21복사\n우편번호\n우편번호\n21998복사\n안내 레이어 닫기","source":"naver","mapUrl":"https://naver.me/GG8vVI1g","placeId":"1822404399"}],"hasPlaceInfo":true,"collectedAt":"2026-01-07T23:58:43.770Z","failedUrls":[]}
{"videoId":"Gq6sU9ngVXw","places":[{"name":"금돈미가","roadAddress":"대구 중구 대봉로 190-1 1층 금돈미가","jibunAddress":"대구 중구 대봉동 179-40","phone":"0507-1311-5728","category":"육류,고기요리","lat":"35.8557853057812","lng":"128.602532178151","debug_container_text":"도로명대구 중구 대봉로 190-1 1층 금돈미가복사\n지번대구 중구 대봉동 179-40복사\n우편번호\n우편번호\n41954복사\n안내 레이어 닫기","source":"naver","mapUrl":"https://naver.me/GTONoBBs","placeId":"1011090496"}],"hasPlaceInfo":true,"collectedAt":"2026-01-07T23:58:54.739Z","failedUrls":[]}
{"videoId":"DQ9h2nM91co","places":[{"name":"호천생갈비 광명사거리역본점","roadAddress":"경기 광명시 오리로 999 1층,2층","jibunAddress":"경기 광명시 광명동 158-852","phone":"0507-1328-8293","category":"육류,고기요리","lat":"37.4798571778947","lng":"126.852163756821","debug_container_text":"도로명경기 광명시 오리로 999 1층,2층복사\n지번경기 광명시 광명동 158-852복사\n우편번호\n우편번호\n14285복사\n안내 레이어 닫기","source":"naver","mapUrl":"https://naver.me/xTbdjZ3B","placeId":"38576149"}],"hasPlaceInfo":true,"collectedAt":"2026-01-07T23:58:52.581Z","failedUrls":[]}
{"videoId":"XaHKI4_HM5g","places":[{"name":"긴자 하치고","roadAddress":"일본 〒104-0061 Tokyo, Chuo City, Ginza, 3 Chome−14−2 第一はなぶさビル 1階","phone":null,"category":"일본라면 전문식당","lat":35.670552,"lng":139.7675751,"source":"google","mapUrl":"https://maps.app.goo.gl/AtvqR5CXCR15xWa46"}],"hasPlaceInfo":true,"collectedAt":"2026-01-08T00:01:02.317Z","failedUrls":[]}
{"videoId":"UXqQBNAheWk","places":[{"name":"야키토리 해공","roadAddress":"부산 수영구 민락본동로19번길 30-5 1층 해공","jibunAddress":"부산 수영구 민락동 24-6","phone":"051-758-8333","category":"일식당","lat":"35.15823671287849","lng":"129.1271149769829","debug_container_text":"도로명부산 수영구 민락본동로19번길 30-5 1층 해공복사\n지번부산 수영구 민락동 24-6복사\n우편번호\n우편번호\n48290복사\n안내 레이어 닫기","source":"naver","mapUrl":"https://naver.me/Gl7vJyCt","placeId":"1125056586"}],"hasPlaceInfo":true,"collectedAt":"2026-01-08T00:01:09.503Z","failedUrls":[]}
{"videoId":"bXpyBFXdQv0","places":[{"name":"백양육식장","roadAddress":"부산 부산진구 전포대로 216-1 1 층 백양 육식장","jibunAddress":"부산 부산진구 전포동 309-15","phone":"0507-1396-0760","category":"소고기구이","lat":"35.15597828317582","lng":"129.0656419946347","debug_container_text":"도로명부산 부산진구 전포대로 216-1 1 층 백양 육식장복사\n지번부산 부산진구 전포동 309-15복사\n우편번호\n우편번호\n47303복사\n안내 레이어 닫기","source":"naver","mapUrl":"https://naver.me/xlCVWSHD","placeId":"1563418703"}],"hasPlaceInfo":true,"collectedAt":"2026-01-08T00:01:19.109Z","failedUrls":[]}
{"videoId":"pM0KyPoENIc","places":[{"name":"일미등갈비","roadAddress":"경기 안산시 상록구 석호로 374","jibunAddress":"경기 안산시 상록구 본오동 829-5","phone":"031-415-1292","category":"육류,고기요리","lat":"37.2930551772345","lng":"126.872126556997","debug_container_text":"도로명경기 안산시 상록구 석호로 374복사\n지번경기 안산시 상록구 본오동 829-5복사\n우편번호\n우편번호\n15556복사\n안내 레이어 닫기","source":"naver","mapUrl":"https://naver.me/xcKAfEO2","placeId":"21530533"}],"hasPlaceInfo":true,"collectedAt":"2026-01-08T00:01:16.928Z","failedUrls":[]}
{"videoId":"AwOmra07avU","places":[{"name":"우메돈","roadAddress":"서울 중구 충무로 31 1층","jibunAddress":"서울 중구 초동 41-7","phone":"0507-1497-3124","category":"돈가스","lat":"37.5640265128455","lng":"126.992711931835","debug_container_text":"도로명서울 중구 충무로 31 1층복사\n지번서울 중구 초동 41-7복사\n우편번호\n우편번호\n04555복사\n안내 레이어 닫기","source":"naver","mapUrl":"https://naver.me/52R9dtbY","placeId":"1946183790"}],"hasPlaceInfo":true,"collectedAt":"2026-01-08T00:01:28.007Z","failedUrls":[]}
{"videoId":"JlsvNLRQ-Zw","places":[{"name":"연성갈비","roadAddress":"경기 화성시 동탄반송길 17-1","jibunAddress":"경기 화성시 반송동 35-2","phone":"0507-1324-9254","category":"육류,고기요리","lat":"37.20997039969616","lng":"127.06386994425085","debug_container_text":"도로명경기 화성시 동탄반송길 17-1복사\n지번경기 화성시 반송동 35-2복사\n우편번호\n우편번호\n18434복사\n안내 레이어 닫기","source":"naver","mapUrl":"https://naver.me/56apwdTR","placeId":"1170548055"}],"hasPlaceInfo":true,"collectedAt":"2026-01-08T00:01:25.842Z","failedUrls":[]}
{"videoId":"KZVoezDikR8","places":[{"name":"Ginza Yakiniku Nikusyo Furusato（wagyu）","roadAddress":"일본 〒104-0061 Tokyo, Chuo City, Ginza, 8 Chome−8−11 博品館ビル ５階","phone":"+81 3-6274-6428","category":"야키니쿠 전문식당","lat":35.6678339,"lng":139.758457,"source":"google","mapUrl":"https://maps.app.goo.gl/LpnibMCzpVA2zo7JA"}],"hasPlaceInfo":true,"collectedAt":"2026-01-08T00:01:39.792Z","failedUrls":[]}
{"videoId":"VEGXUTMKHqo","places":[{"name":"부연","roadAddress":"경기 김포시 김포한강1로84번길 17-6 1층","jibunAddress":"경기 김포시 장기동 1966-9","phone":"0507-1382-7722","category":"육류,고기요리","lat":"37.6454060110481","lng":"126.671715045576","debug_container_text":"도로명경기 김포시 김포한강1로84번길 17-6 1층복사\n지번경기 김포시 장기동 1966-9복사\n우편번호\n우편번호\n10079복사\n안내 레이어 닫기","source":"naver","mapUrl":"https://naver.me/FARNwSMg","placeId":"1248539395"}],"hasPlaceInfo":true,"collectedAt":"2026-01-08T00:01:34.822Z","failedUrls":[]}
{"videoId":"N7DURTacujU","places":[{"name":"숙성도 을지로점","roadAddress":"서울 중구 삼일대로10길 36 2층","jibunAddress":"서울 중구 저동2가 89","phone":"0507-1491-8015","category":"돼지고기구이","lat":"37.565675096593864","lng":"126.98953003321823","debug_container_text":"도로명서울 중구 삼일대로10길 36 2층복사\n지번서울 중구 저동2가 89복사\n우편번호\n우편번호\n04551복사\n안내 레이어 닫기","source":"naver","mapUrl":"https://naver.me/FjbLtpzi","placeId":"1663003904"}],"hasPlaceInfo":true,"collectedAt":"2026-01-08T00:01:48.195Z","failedUrls":[]}
{"videoId":"APT0ncjbUt4","places":[{"name":"교카이젠","roadAddress":"경기 안양시 동안구 관평로212번길 15 상가동 지하층 105호","jibunAddress":"경기 안양시 동안구 관양동 1588-13","phone":"0507-1364-5221","category":"일식당","lat":"37.3962384485929","lng":"126.95969740985771","debug_container_text":"도로명경기 안양시 동안구 관평로212번길 15 상가동 지하층 105호복사\n지번경기 안양시 동안구 관양동 1588-13복사\n우편번호\n우편번호\n14051복사\n안내 레이어 닫기","source":"naver","mapUrl":"https://naver.me/5pHbpKpJ","placeId":"1556512585"}],"hasPlaceInfo":true,"collectedAt":"2026-01-08T00:01:46.060Z","failedUrls":[]}
{"videoId":"Yqx3EhUNJrM","places":[{"name":"Gyubo","roadAddress":"7 Chome-3-12 Tateishi, Katsushika City, Tokyo 124-0012 일본","phone":"+81 3-5670-3793","category":"야키니쿠 전문식당","lat":35.7395672,"lng":139.8472142,"source":"google","mapUrl":"https://maps.app.goo.gl/nQAZbn5witUaygvc9"}],"hasPlaceInfo":true,"collectedAt":"2026-01-08T00:01:59.973Z","failedUrls":[]}
{"videoId":"eBoDrTGySXk","places":[{"name":"뭉텅 오목교점","roadAddress":"서울 양천구 오목로 339 1층","jibunAddress":"서울 양천구 목동 406-34","phone":"02-2644-7770","category":"돼지고기구이","lat":"37.524731476992145","lng":"126.87537712282224","debug_container_text":"도로명서울 양천구 오목로 339 1층복사\n지번서울 양천구 목동 406-34복사\n우편번호\n우편번호\n07999복사\n안내 레이어 닫기","source":"naver","mapUrl":"https://naver.me/5HtPnAw1","placeId":"1443659005"}],"hasPlaceInfo":true,"collectedAt":"2026-01-08T00:01:54.703Z","failedUrls":[]}
{"videoId":"V6QCc6bmM98","places":[{"name":"사랑방","roadAddress":"경기 안산시 단원구 너비울길 173","jibunAddress":"경기 안산시 단원구 화정동 25","phone":"031-403-0082","category":"소고기구이","lat":"37.36068809711324","lng":"126.83283796859688","debug_container_text":"도로명경기 안산시 단원구 너비울길 173복사\n지번경기 안산시 단원구 화정동 25복사\n우편번호\n우편번호\n15209복사\n안내 레이어 닫기","source":"naver","mapUrl":"https://naver.me/xFprQPP4","placeId":"18195880"}],"hasPlaceInfo":true,"collectedAt":"2026-01-08T00:02:08.969Z","failedUrls":[]}
{"videoId":"Lw9SmVwS3ug","places":[{"name":"세종참숯돼지갈비 본점","roadAddress":"경기 수원시 영통구 청명남로4번길 5-16","jibunAddress":"경기 수원시 영통구 영통동 1001-1","phone":"031-206-1127","category":"돼지고기구이","lat":"37.2507519774929","lng":"127.074361015554","debug_container_text":"도로명경기 수원시 영통구 청명남로4번길 5-16복사\n지번경기 수원시 영통구 영통동 1001-1복사\n우편번호\n우편번호\n16705복사\n안내 레이어 닫기","source":"naver","mapUrl":"https://naver.me/GHvLzsiy","placeId":"37452343"}],"hasPlaceInfo":true,"collectedAt":"2026-01-08T00:02:06.853Z","failedUrls":[]}
{"videoId":"b8eZaPwEHbw","places":[{"name":"정숙성 샤로수길점","roadAddress":"서울 관악구 남부순환로226길 31 1층 정숙성","jibunAddress":"서울 관악구 봉천동 1603-3","phone":"0507-1370-6668","category":"육류,고기요리","lat":"37.47919458101109","lng":"126.95375917295634","debug_container_text":"도로명서울 관악구 남부순환로226길 31 1층 정숙성복사\n지번서울 관악구 봉천동 1603-3복사\n우편번호\n우편번호\n08788복사\n안내 레이어 닫기","source":"naver","mapUrl":"https://naver.me/xJNcDsv8","placeId":"1959742624"}],"hasPlaceInfo":true,"collectedAt":"2026-01-08T00:02:17.321Z","failedUrls":[]}
{"videoId":"UpJXb7_Yh2w","places":[{"name":"봉피양 방이점","roadAddress":"서울 송파구 양재대로71길 1-4","jibunAddress":"서울 송파구 방이동 205","phone":"02-415-5527","category":"한식","lat":"37.5100191449277","lng":"127.126184140413","debug_container_text":"도로명서울 송파구 양재대로71길 1-4복사\n지번서울 송파구 방이동 205복사\n우편번호\n우편번호\n05639복사\n안내 레이어 닫기","source":"naver","mapUrl":"https://naver.me/5Gy547ax","placeId":"11861413"}],"hasPlaceInfo":true,"collectedAt":"2026-01-08T00:02:15.145Z","failedUrls":[]}
{"videoId":"WMZwmxHvkiI","places":[{"name":"당진생고기촌","roadAddress":"경기 수원시 장안구 팔달로199번길 38 당진생고기촌","jibunAddress":"경기 수원시 장안구 영화동 427-8","phone":"031-254-6090","category":"육류,고기요리","lat":"37.28720422578536","lng":"127.00696920960569","debug_container_text":"도로명경기 수원시 장안구 팔달로199번길 38 당진생고기촌복사\n지번경기 수원시 장안구 영화동 427-8복사\n우편번호\n우편번호\n16272복사\n안내 레이어 닫기","source":"naver","mapUrl":"https://naver.me/5rhIPO3H","placeId":"17973191"}],"hasPlaceInfo":true,"collectedAt":"2026-01-08T00:02:25.667Z","failedUrls":[]}
{"videoId":"Cq-pV4nayjw","places":[{"name":"양부자","roadAddress":"경기 용인시 기흥구 사은로 100 천하무적삼겹살","jibunAddress":"경기 용인시 기흥구 보라동 144-1","phone":"031-275-3637","category":"육류,고기요리","lat":"37.2559551922447","lng":"127.116182128912","debug_container_text":"도로명경기 용인시 기흥구 사은로 100 천하무적삼겹살복사\n지번경기 용인시 기흥구 보라동 144-1복사\n우편번호\n우편번호\n17079복사\n안내 레이어 닫기","source":"naver","mapUrl":"https://naver.me/58NOQ33I","placeId":"1885326267"}],"hasPlaceInfo":true,"collectedAt":"2026-01-08T00:02:23.543Z","failedUrls":[]}
{"videoId":"lQVi1Rd9jJo","places":[{"name":"무쇠막생고기","roadAddress":"서울 성동구 금호로 47-1","jibunAddress":"서울 성동구 금호동4가 118","phone":"02-2299-4910","category":"돼지고기구이","lat":"37.547820182068996","lng":"127.02546141076782","debug_container_text":"도로명서울 성동구 금호로 47-1복사\n지번서울 성동구 금호동4가 118복사\n우편번호\n우편번호\n04737복사\n안내 레이어 닫기","source":"naver","mapUrl":"https://naver.me/F40RfAn1","placeId":"17911554"}],"hasPlaceInfo":true,"collectedAt":"2026-01-08T00:02:34.113Z","failedUrls":[]}
{"videoId":"9fhA1w_Kj1g","places":[{"name":"한신가든","roadAddress":"경기 시흥시 가마길 40-22","jibunAddress":"경기 시흥시 대야동 201-11","phone":"031-314-5158","category":"한식","lat":"37.4537551333798","lng":"126.791374321378","debug_container_text":"도로명경기 시흥시 가마길 40-22복사\n지번경기 시흥시 대야동 201-11복사\n우편번호\n우편번호\n14901복사\n안내 레이어 닫기","source":"naver","mapUrl":"https://naver.me/FbzU5EQt","placeId":"17889091"}],"hasPlaceInfo":true,"collectedAt":"2026-01-08T00:02:31.998Z","failedUrls":[]}
{"videoId":"wxnUrstMzH4","places":[{"name":"원조 조박집 본관","roadAddress":"서울 마포구 토정로 313-1 1층동","jibunAddress":"서울 마포구 용강동 40-1","phone":"02-712-7462","category":"육류,고기요리","lat":"37.539972062009305","lng":"126.94386630483366","debug_container_text":"도로명서울 마포구 토정로 313-1 1층동복사\n지번서울 마포구 용강동 40-1복사\n우편번호\n우편번호\n04166복사\n안내 레이어 닫기","source":"naver","mapUrl":"https://naver.me/IgoGlmuh","placeId":"11679456"}],"hasPlaceInfo":true,"collectedAt":"2026-01-08T00:02:42.443Z","failedUrls":[]}
{"videoId":"IrzQpB_hRcg","places":[{"name":"돈장군주먹고기","roadAddress":"경기 안양시 동안구 인덕원로24번길 14","jibunAddress":"경기 안양시 동안구 관양동 1490-7","phone":"0507-1443-1378","category":"육류,고기요리","lat":"37.4014793844151","lng":"126.974872797402","debug_container_text":"도로명경기 안양시 동안구 인덕원로24번길 14복사\n지번경기 안양시 동안구 관양동 1490-7복사\n우편번호\n우편번호\n13951복사\n안내 레이어 닫기","source":"naver","mapUrl":"https://naver.me/xn6yNwbE","placeId":"36481168"}],"hasPlaceInfo":true,"collectedAt":"2026-01-08T00:02:40.276Z","failedUrls":[]}
{"videoId":"KQzgUAOIMuY","places":[{"name":"강원멧돼지","roadAddress":"경기 의왕시 상직막길 34","jibunAddress":"경기 의왕시 청계동 647","phone":"0507-1439-5561","category":"돼지고기구이","lat":"37.4018820876235","lng":"127.002177521856","debug_container_text":"도로명경기 의왕시 상직막길 34복사\n지번경기 의왕시 청계동 647복사\n우편번호\n우편번호\n16000복사\n안내 레이어 닫기","source":"naver","mapUrl":"https://naver.me/GnvY1X15","placeId":"19763725"}],"hasPlaceInfo":true,"collectedAt":"2026-01-08T00:02:51.503Z","failedUrls":[]}
{"videoId":"sQR7KS23C1g","places":[{"name":"남산막창","roadAddress":"서울 용산구 장문로 81 1층","jibunAddress":"서울 용산구 보광동 217-13","phone":"02-792-7469","category":"돼지고기구이","lat":"37.5261640393948","lng":"126.998642450727","debug_container_text":"도로명서울 용산구 장문로 81 1층복사\n지번서울 용산구 보광동 217-13복사\n우편번호\n우편번호\n04394복사\n안내 레이어 닫기","source":"naver","mapUrl":"https://naver.me/5zlQdn6y","placeId":"1603591552"}],"hasPlaceInfo":true,"collectedAt":"2026-01-08T00:02:49.378Z","failedUrls":[]}
{"videoId":"IpwNBwqYHh8","places":[{"name":"천현한우집","roadAddress":"경기 광주시 초월읍 무갑길 68","jibunAddress":"경기 광주시 초월읍 무갑리 607","phone":"031-763-5762","category":"소고기구이","lat":"37.4221067694796","lng":"127.314934927309","debug_container_text":"도로명경기 광주시 초월읍 무갑길 68복사\n지번경기 광주시 초월읍 무갑리 607복사\n우편번호\n우편번호\n12730복사\n안내 레이어 닫기","source":"naver","mapUrl":"https://naver.me/xhHlQJPc","placeId":"12010808"}],"hasPlaceInfo":true,"collectedAt":"2026-01-08T00:02:59.916Z","failedUrls":[]}
{"videoId":"uw85_96jrdA","places":[{"name":"동수원소금구이","roadAddress":"경기 수원시 권선구 구운로86번길 29","jibunAddress":"경기 수원시 권선구 구운동 476-10","phone":"031-293-9592","category":"육류,고기요리","lat":"37.2804817525014","lng":"126.974583816961","debug_container_text":"도로명경기 수원시 권선구 구운로86번길 29복사\n지번경기 수원시 권선구 구운동 476-10복사\n우편번호\n우편번호\n16407복사\n안내 레이어 닫기","source":"naver","mapUrl":"https://naver.me/5Z0SAq0f","placeId":"18050794"}],"hasPlaceInfo":true,"collectedAt":"2026-01-08T00:02:57.802Z","failedUrls":[]}
{"videoId":"volc36r7744","places":[{"name":"홍고집","roadAddress":"경기 광주시 이배재로 209-4","jibunAddress":"경기 광주시 목현동 41","phone":"0507-1361-6119","category":"육류,고기요리","lat":"37.4325616030594","lng":"127.234526934633","debug_container_text":"도로명경기 광주시 이배재로 209-4복사\n지번경기 광주시 목현동 41복사\n우편번호\n우편번호\n12765복사\n안내 레이어 닫기","source":"naver","mapUrl":"https://naver.me/xhKSQM7Z","placeId":"34969226"}],"hasPlaceInfo":true,"collectedAt":"2026-01-08T00:03:08.564Z","failedUrls":[]}
{"videoId":"4HfqiWYy6J0","places":[{"name":"도마집","roadAddress":"대전 서구 도산로 102","jibunAddress":"대전 서구 도마동 90-35","phone":"042-525-9392","category":"육류,고기요리","lat":"36.317495026407634","lng":"127.37846978335322","debug_container_text":"도로명대전 서구 도산로 102복사\n지번대전 서구 도마동 90-35복사\n우편번호\n우편번호\n35331복사\n안내 레이어 닫기","source":"naver","mapUrl":"https://naver.me/F1e2LmeE","placeId":"21454104"}],"hasPlaceInfo":true,"collectedAt":"2026-01-08T00:03:06.445Z","failedUrls":[]}
{"videoId":"dCzWCnfEnKw","places":[{"name":"윤서울","roadAddress":"서울 강남구 선릉로 805 1층","jibunAddress":"서울 강남구 신사동 666-8","phone":"010-6742-4205","category":"한식","lat":"37.52406726965386","lng":"127.03903976108063","source":"naver","mapUrl":"https://naver.me/xlW1OvWO","placeId":"1698341503"}],"hasPlaceInfo":true,"collectedAt":"2026-01-08T00:03:19.766Z","failedUrls":[]}
{"videoId":"uVeLDBRK6z8","places":[{"name":"봉래식당","roadAddress":"경기 남양주시 조안면 북한강로873번길 15-12 봉래보리밥","jibunAddress":"경기 남양주시 조안면 삼봉리 179-4","phone":"031-576-8897","category":"한식","lat":"37.59460251345788","lng":"127.33650196740166","debug_container_text":"도로명경기 남양주시 조안면 북한강로873번길 15-12 봉래보리밥복사\n지번경기 남양주시 조안면 삼봉리 179-4복사\n우편번호\n우편번호\n12278복사\n안내 레이어 닫기","source":"naver","mapUrl":"https://naver.me/xL1Wszyr","placeId":"18210723"}],"hasPlaceInfo":true,"collectedAt":"2026-01-08T00:03:15.558Z","failedUrls":[]}
{"videoId":"X6HAxvt0dgc","places":[{"name":"우촌숯불갈비","roadAddress":"서울 성동구 장터길 44","jibunAddress":"서울 성동구 금호동4가 1119-2","phone":"02-2292-9072","category":"육류,고기요리","lat":"37.5481466436773","lng":"127.02069965148","debug_container_text":"도로명서울 성동구 장터길 44복사\n지번서울 성동구 금호동4가 1119-2복사\n우편번호\n우편번호\n04725복사\n안내 레이어 닫기","source":"naver","mapUrl":"https://naver.me/57ril2KN","placeId":"1653230873"}],"hasPlaceInfo":true,"collectedAt":"2026-01-08T00:03:28.400Z","failedUrls":[]}
{"videoId":"wKH7vfOhVtw","places":[{"name":"호수식당","roadAddress":"대전 중구 목척4길 60 호수식당","jibunAddress":"대전 중구 은행동 129-3","phone":"042-257-7776","category":"한식","lat":"36.3297977733057","lng":"127.42515717518","debug_container_text":"도로명대전 중구 목척4길 60 호수식당복사\n지번대전 중구 은행동 129-3복사\n우편번호\n우편번호\n34832복사\n안내 레이어 닫기","source":"naver","mapUrl":"https://naver.me/GALMhZA3","placeId":"1168714487"}],"hasPlaceInfo":true,"collectedAt":"2026-01-08T00:03:26.170Z","failedUrls":[]}
{"videoId":"oKOce6uvxJg","places":[{"name":"사라우츠 ZARAUTZ","roadAddress":"서울 강남구 도산대로51길 33 2층 사라우츠","jibunAddress":"서울 강남구 신사동 656-6","phone":"010-2230-9697","category":"스페인음식","lat":"37.5253254451663","lng":"127.037884250259","source":"naver","mapUrl":"https://naver.me/FRctMdEr","placeId":"1875390254"}],"hasPlaceInfo":true,"collectedAt":"2026-01-08T00:03:39.026Z","failedUrls":[]}
{"videoId":"k6fIRN1EFxk","places":[{"name":"부일숯불갈비","roadAddress":"서울 영등포구 영중로6길 23-8","jibunAddress":"서울 영등포구 영등포동3가 23-11","phone":"02-2636-9462","category":"육류,고기요리","lat":"37.51814582607549","lng":"126.90863540904311","debug_container_text":"도로명서울 영등포구 영중로6길 23-8복사\n지번서울 영등포구 영등포동3가 23-11복사\n우편번호\n우편번호\n07304복사\n안내 레이어 닫기","source":"naver","mapUrl":"https://naver.me/GqNuJJQv","placeId":"18560835"}],"hasPlaceInfo":true,"collectedAt":"2026-01-08T00:03:34.854Z","failedUrls":[]}
{"videoId":"pc6kckR9jzo","places":[{"name":"산막골가든","roadAddress":"대전 서구 장안로 772-62","jibunAddress":"대전 서구 장안동 416-3","phone":"042-585-2475","category":"육류,고기요리","lat":"36.19678110594209","lng":"127.33672370703381","debug_container_text":"도로명대전 서구 장안로 772-62복사\n지번대전 서구 장안동 416-3복사\n우편번호\n우편번호\n35428복사\n안내 레이어 닫기","source":"naver","mapUrl":"https://naver.me/5bXVCXSL","placeId":"33989564"}],"hasPlaceInfo":true,"collectedAt":"2026-01-08T00:03:48.012Z","failedUrls":[]}
{"videoId":"7eknb74iU8E","places":[{"name":"돈고을 생고기","roadAddress":"충남 서산시 율지7로 19 청솔빌딩 1층","jibunAddress":"충남 서산시 동문동 193-13","phone":"041-663-4543","category":"육류,고기요리","lat":"36.77843749294059","lng":"126.46586993206101","debug_container_text":"도로명충남 서산시 율지7로 19 청솔빌딩 1층복사\n지번충남 서산시 동문동 193-13복사\n우편번호\n우편번호\n31993복사\n안내 레이어 닫기","source":"naver","mapUrl":"https://naver.me/FeOp9Iko","placeId":"13474361"}],"hasPlaceInfo":true,"collectedAt":"2026-01-08T00:03:45.827Z","failedUrls":[]}
{"videoId":"7MqeS-S8llc","places":[{"name":"대도숯불구이","roadAddress":"서울 성동구 용답29길 18 1층","jibunAddress":"서울 성동구 용답동 4-6","phone":"02-2242-8338","category":"육류,고기요리","lat":"37.56430434603674","lng":"127.05435567385247","debug_container_text":"도로명서울 성동구 용답29길 18 1층복사\n지번서울 성동구 용답동 4-6복사\n우편번호\n우편번호\n04805복사\n안내 레이어 닫기","source":"naver","mapUrl":"https://naver.me/5EQansfU","placeId":"18798199"}],"hasPlaceInfo":true,"collectedAt":"2026-01-08T00:03:56.555Z","failedUrls":[]}
{"videoId":"h-PF5z9GvQc","places":[{"name":"춘천농민한우 신북점","roadAddress":"강원 춘천시 신북읍 신샘밭로 360","jibunAddress":"강원 춘천시 신북읍 율문리 935-17","phone":"033-241-9289","category":"소고기구이","lat":"37.9243942169018","lng":"127.750914599917","debug_container_text":"도로명강원 춘천시 신북읍 신샘밭로 360복사\n지번강원 춘천시 신북읍 율문리 935-17복사\n우편번호\n우편번호\n24206복사\n안내 레이어 닫기","source":"naver","mapUrl":"https://naver.me/GkKRRYVZ","placeId":"65694837"}],"hasPlaceInfo":true,"collectedAt":"2026-01-08T00:03:54.402Z","failedUrls":[]}
{"videoId":"pZ0SuTm6GsE","places":[{"name":"평화불고기","roadAddress":"강원 춘천시 보안길 50","jibunAddress":"강원 춘천시 후평동 72-1","phone":"033-255-1271","category":"소고기구이","lat":"37.8790634134817","lng":"127.751454368071","debug_container_text":"도로명강원 춘천시 보안길 50복사\n지번강원 춘천시 후평동 72-1복사\n우편번호\n우편번호\n24302복사\n안내 레이어 닫기","source":"naver","mapUrl":"https://naver.me/5SyV456i","placeId":"15150311"}],"hasPlaceInfo":true,"collectedAt":"2026-01-08T00:04:05.358Z","failedUrls":[]}
{"videoId":"00BklGRlQP8","places":[{"name":"봉래식당","roadAddress":"경기 남양주시 조안면 북한강로873번길 15-12 봉래보리밥","jibunAddress":"경기 남양주시 조안면 삼봉리 179-4","phone":"031-576-8897","category":"한식","lat":"37.59460251345788","lng":"127.33650196740166","debug_container_text":"도로명경기 남양주시 조안면 북한강로873번길 15-12 봉래보리밥복사\n지번경기 남양주시 조안면 삼봉리 179-4복사\n우편번호\n우편번호\n12278복사\n안내 레이어 닫기","source":"naver","mapUrl":"https://naver.me/xL1Wszyr","placeId":"18210723"}],"hasPlaceInfo":true,"collectedAt":"2026-01-08T00:04:03.210Z","failedUrls":[]}
{"videoId":"0L-ehUbcaqw","places":[{"name":"뚜레한우 남양주점","roadAddress":"경기 남양주시 화도읍 마치로 315","jibunAddress":"경기 남양주시 화도읍 묵현리 372-27","phone":"031-593-8980","category":"소고기구이","lat":"37.6546363519285","lng":"127.280525810819","debug_container_text":"도로명경기 남양주시 화도읍 마치로 315복사\n지번경기 남양주시 화도읍 묵현리 372-27복사\n우편번호\n우편번호\n12178복사\n안내 레이어 닫기","source":"naver","mapUrl":"https://naver.me/52lhMnY8","placeId":"37413858"}],"hasPlaceInfo":true,"collectedAt":"2026-01-08T00:04:18.005Z","failedUrls":[]}
{"videoId":"W9nhVmt8WcU","places":[{"name":"Nakasei Nikuzuki","roadAddress":"573 Inaricho Kitagumi, Higashiyama Ward, Kyoto, 605-0068 일본","phone":"+81 75-748-1429","category":"고기 요리 전문점","lat":34.9994283,"lng":135.7747624,"source":"google","mapUrl":"https://maps.app.goo.gl/3BE31ULRvVwZkftA6"}],"hasPlaceInfo":true,"collectedAt":"2026-01-08T00:04:15.804Z","failedUrls":[]}
{"videoId":"vC7SxxgHias","places":[{"name":"여락식당","roadAddress":"인천 서구 백범로622번길 30 B1.2호","jibunAddress":"인천 서구 가좌동 480-20","phone":"0507-1379-8488","category":"정육식당","lat":"37.4791356429999","lng":"126.688592975084","debug_container_text":"도로명인천 서구 백범로622번길 30 B1.2호복사\n지번인천 서구 가좌동 480-20복사\n우편번호\n우편번호\n22824복사\n안내 레이어 닫기","source":"naver","mapUrl":"https://naver.me/FGFiLUwA","placeId":"1466939720"}],"hasPlaceInfo":true,"collectedAt":"2026-01-08T00:04:26.656Z","failedUrls":[]}
{"videoId":"1SLbLyYAq9k","places":[{"name":"원픽","roadAddress":"서울 강남구 선릉로127길 10 1층","jibunAddress":"서울 강남구 논현동 242-14","phone":"0507-1314-2129","category":"돼지고기구이","lat":"37.5155981296269","lng":"127.040850814914","debug_container_text":"도로명서울 강남구 선릉로127길 10 1층복사\n지번서울 강남구 논현동 242-14복사\n우편번호\n우편번호\n06099복사\n안내 레이어 닫기","source":"naver","mapUrl":"https://naver.me/GWJOj6Jq","placeId":"1883061299"}],"hasPlaceInfo":true,"collectedAt":"2026-01-08T00:04:24.482Z","failedUrls":[]}
{"videoId":"XNY73Q_CMUM","places":[{"name":"오케이목장","roadAddress":"경기 의왕시 청계로 106","jibunAddress":"경기 의왕시 청계동 571","phone":"031-426-0119","category":"육류,고기요리","lat":"37.397344463281705","lng":"127.00486976563272","debug_container_text":"도로명경기 의왕시 청계로 106복사\n지번경기 의왕시 청계동 571복사\n우편번호\n우편번호\n16000복사\n안내 레이어 닫기","source":"naver","mapUrl":"https://naver.me/FiLEEu4S","placeId":"11066693"}],"hasPlaceInfo":true,"collectedAt":"2026-01-08T00:04:35.205Z","failedUrls":[]}
{"videoId":"8b8E3OzRFyw","places":[{"name":"마장동김씨 수원인계점","roadAddress":"경기 수원시 팔달구 경수대로446번길 61 101호","jibunAddress":"경기 수원시 팔달구 인계동 1032-8","phone":"0507-1404-4649","category":"육류,고기요리","lat":"37.2651954025778","lng":"127.03008288902","debug_container_text":"도로명경기 수원시 팔달구 경수대로446번길 61 101호복사\n지번경기 수원시 팔달구 인계동 1032-8복사\n우편번호\n우편번호\n16489복사\n안내 레이어 닫기","source":"naver","mapUrl":"https://naver.me/xao4LM7Z","placeId":"1123377484"}],"hasPlaceInfo":true,"collectedAt":"2026-01-08T00:04:33.076Z","failedUrls":[]}
{"videoId":"PDe_yBlWoIA","places":[{"name":"늘조은한우 구의직영점","roadAddress":"서울 광진구 아차산로 355 광진아크로텔 103, 104호","jibunAddress":"서울 광진구 자양동 779","phone":"0507-1389-8315","category":"육류,고기요리","lat":"37.5375240444831","lng":"127.0822720368","debug_container_text":"도로명서울 광진구 아차산로 355 광진아크로텔 103, 104호복사\n지번서울 광진구 자양동 779복사\n우편번호\n우편번호\n05026복사\n안내 레이어 닫기","source":"naver","mapUrl":"https://naver.me/GXq3SdXj","placeId":"1518421501"}],"hasPlaceInfo":true,"collectedAt":"2026-01-08T00:04:41.707Z","failedUrls":[]}
{"videoId":"xaKFDTIUCeE","places":[{"name":"금돼지식당","roadAddress":"서울 중구 다산로 149","jibunAddress":"서울 중구 신당동 370-69","phone":"0507-1307-8750","category":"돼지고기구이","lat":"37.55705875134064","lng":"127.01167974212188","debug_container_text":"도로명서울 중구 다산로 149복사\n지번서울 중구 신당동 370-69복사\n우편번호\n우편번호\n04607복사\n안내 레이어 닫기","source":"naver","mapUrl":"https://naver.me/G3XM57XC","placeId":"37869877"},{"name":"남영돈","roadAddress":"서울 용산구 한강대로80길 17 남영돈","jibunAddress":"서울 용산구 남영동 52-2","phone":"0507-1351-3598","category":"돼지고기구이","lat":"37.5427503629762","lng":"126.973775391327","debug_container_text":"도로명서울 용산구 한강대로80길 17 남영돈복사\n지번서울 용산구 남영동 52-2복사\n우편번호\n우편번호\n04352복사\n안내 레이어 닫기","source":"naver","mapUrl":"https://naver.me/5dP7fepB","placeId":"19774046"}],"hasPlaceInfo":true,"collectedAt":"2026-01-08T00:04:57.377Z","failedUrls":[]}
{"videoId":"H-iTPuddax4","places":[{"name":"원조포항푸줏간","roadAddress":"경북 포항시 북구 중앙로 362 원도포항푸줏간","jibunAddress":"경북 포항시 북구 덕수동 47-1","phone":"054-242-9993","category":"한식","lat":"36.0449512242504","lng":"129.365181740819","debug_container_text":"도로명경북 포항시 북구 중앙로 362 원도포항푸줏간복사\n지번경북 포항시 북구 덕수동 47-1복사\n우편번호\n우편번호\n37727복사\n안내 레이어 닫기","source":"naver","mapUrl":"https://naver.me/IxWfuUhu","placeId":"20416487"}],"hasPlaceInfo":true,"collectedAt":"2026-01-08T00:04:49.208Z","failedUrls":[]}
{"videoId":"0YxmFcvclSI","places":[{"name":"죽도숯불간받이","roadAddress":"경북 포항시 북구 죽도시장4길 14-5","jibunAddress":"경북 포항시 북구 죽도동 12-66","phone":"054-244-4847","category":"육류,고기요리","lat":"36.033854953282066","lng":"129.3664892652587","debug_container_text":"도로명경북 포항시 북구 죽도시장4길 14-5복사\n지번경북 포항시 북구 죽도동 12-66복사\n안내 레이어 닫기","source":"naver","mapUrl":"https://naver.me/xevcsRbW","placeId":"15197350"}],"hasPlaceInfo":true,"collectedAt":"2026-01-08T00:05:06.193Z","failedUrls":[]}
{"videoId":"G5RyWNfi2Zs","places":[{"name":"참다운정육식당 광교점","roadAddress":"경기 용인시 수지구 광교마을로 33 1층","jibunAddress":"경기 용인시 수지구 상현동 1174-2","phone":"031-214-8777","category":"정육식당","lat":"37.2992620988691","lng":"127.068532472036","debug_container_text":"도로명경기 용인시 수지구 광교마을로 33 1층복사\n지번경기 용인시 수지구 상현동 1174-2복사\n우편번호\n우편번호\n16944복사\n안내 레이어 닫기","source":"naver","mapUrl":"https://naver.me/xVA2sUup","placeId":"1071711527"}],"hasPlaceInfo":true,"collectedAt":"2026-01-08T00:05:04.076Z","failedUrls":[]}
{"videoId":"lFLmr0uaDPI","places":[{"name":"나가하마 선어시장","roadAddress":"일본 〒810-0072 Fukuoka, Chuo Ward, Nagahama, 3 Chome−11−3 市場会館 １階 鮮魚市場市場会館","phone":"+81 92-711-6414","category":"수산 시장","lat":33.5946353,"lng":130.3895178,"source":"google","mapUrl":"https://maps.app.goo.gl/aiBGqM85yEm7LtWp9"},{"name":"리카엔 다이묘 본점","roadAddress":"2 Chome-3-12 Daimyo, Chuo Ward, Fukuoka, 810-0041 일본","phone":"+81 92-752-8833","category":"한식 고기구이 레스토랑","lat":33.587993,"lng":130.38864,"source":"google","mapUrl":"https://maps.app.goo.gl/1Vn1yUbEmxvgyu5x7"},{"name":"Yakiniku Like tenjinnishidori","roadAddress":"2 Chome-7-12 Tenjin, Chuo Ward, Fukuoka, 810-0001 일본","phone":"+81 92-401-1533","category":"야키니쿠 전문식당","lat":33.5897926,"lng":130.391231,"source":"google","mapUrl":"https://maps.app.goo.gl/DTSphhRjC1ozjoQPA"},{"name":"야키니쿠 하치하치 하카타점","roadAddress":"3 Chome-12-20 Hakataekihigashi, Hakata Ward, Fukuoka, 812-0013 일본","phone":"+81 92-414-8815","category":"야키니쿠 전문식당","lat":33.5860026,"lng":130.4226593,"source":"google","mapUrl":"https://maps.app.goo.gl/aBLcuF46JdXznbVUA"}],"hasPlaceInfo":true,"collectedAt":"2026-01-08T00:05:50.909Z","failedUrls":[]}
{"videoId":"pQFnx89t2oc","places":[{"name":"쿠이야","roadAddress":"1 Chome-18-26 Tengachaya, Nishinari Ward, Osaka, 557-0014 일본","phone":"+81 6-6651-6782","category":"야키니쿠 전문식당","lat":34.6427823,"lng":135.4972617,"source":"google","mapUrl":"https://maps.app.goo.gl/eY5EFE4eq1VrnQtd8"}],"hasPlaceInfo":true,"collectedAt":"2026-01-08T00:06:02.206Z","failedUrls":[]}
{"videoId":"pkAeWcuqL_Y","places":[{"name":"다이후쿠엔","roadAddress":"2 Chome-13-6 Asakusa, Taito City, Tokyo 111-0032 일본","phone":"+81 3-3841-2705","category":"야키니쿠 전문식당","lat":35.7157752,"lng":139.7903327,"source":"google","mapUrl":"https://maps.app.goo.gl/ESnmUR6huMVMLJuF7"},{"name":"焼肉ホルモン金樹","roadAddress":"2 Chome-13-17 Akasaka, Minato City, Tokyo 107-0052 일본","phone":"+81 3-6277-8829","category":"곱창구이 전문점","lat":35.6723501,"lng":139.7373879,"source":"google","mapUrl":"https://maps.app.goo.gl/uMTQ8atARJyMNjGk8"}],"hasPlaceInfo":true,"collectedAt":"2026-01-08T00:06:13.416Z","failedUrls":[]}
{"videoId":"xSe3DMnP_rM","places":[{"name":"미키","roadAddress":"1 Chome-13-9 Higashishinsaibashi, Chuo Ward, Osaka, 542-0083 일본","phone":"+81 6-6241-9228","category":"야키니쿠 전문식당","lat":34.6736049,"lng":135.5017062,"source":"google","mapUrl":"https://maps.app.goo.gl/mmfPPvKkk4D6DL2ZA"}],"hasPlaceInfo":true,"collectedAt":"2026-01-08T00:06:27.371Z","failedUrls":[]}
{"videoId":"olQMvMlPRCU","places":[{"name":"Kobe Beef Steak Ken (Teppanyaki)","roadAddress":"일본 〒542-0085 Osaka, Chuo Ward, Shinsaibashisuji, 2 Chome−3−5 日宝ファインプラザビル 2階","phone":"+81 6-6214-5656","category":"스테이크 전문점","lat":34.6698927,"lng":135.4995291,"source":"google","mapUrl":"https://maps.app.goo.gl/dr4v2YDBvG64ZUDp7"}],"hasPlaceInfo":true,"collectedAt":"2026-01-08T00:06:23.819Z","failedUrls":[]}
{"videoId":"ijoNL7r2h7Q","places":[{"name":"야키토리 이치마츠","roadAddress":"일본 〒530-0003 Osaka, Kita Ward, Dojima, 1 Chome−5−1 エスパス北新地２３ １Ｆ","phone":"+81 6-6346-0112","category":"꼬치구이 전문식당","lat":34.6959714,"lng":135.4944661,"source":"google","mapUrl":"https://maps.app.goo.gl/c9W51XrErQEnXpef9"}],"hasPlaceInfo":true,"collectedAt":"2026-01-08T00:06:37.375Z","failedUrls":[]}
{"videoId":"Gim0icfFyLs","places":[{"name":"야키토리 이치마츠","roadAddress":"일본 〒530-0003 Osaka, Kita Ward, Dojima, 1 Chome−5−1 エスパス北新地２３ １Ｆ","phone":"+81 6-6346-0112","category":"꼬치구이 전문식당","lat":34.6959714,"lng":135.4944661,"source":"google","mapUrl":"https://maps.app.goo.gl/c9W51XrErQEnXpef9"}],"hasPlaceInfo":true,"collectedAt":"2026-01-08T00:06:47.891Z","failedUrls":[]}
{"videoId":"H5aKbiSYT6w","places":[{"name":"Tonkatsu Koshiro","roadAddress":"2 Chome-10-24 Minamisenba, Chuo Ward, Osaka, 542-0081 일본","phone":"+81 6-4307-6546","category":"돈까스 전문식당","lat":34.6749664,"lng":135.5001563,"source":"google","mapUrl":"https://maps.app.goo.gl/7uFnsJwBxXXQSshF7"}],"hasPlaceInfo":true,"collectedAt":"2026-01-08T00:07:00.937Z","failedUrls":[]}
{"videoId":"7OtigSlXsUI","places":[{"name":"삼겹살 람루카","roadAddress":"หมู่ที่ 5 35/19 Lat Sawai, Lam Luk Ka District, Pathum Thani 12150 태국","phone":"+66 65 396 4885","category":"한식 고기구이 레스토랑","lat":13.9640475,"lng":100.685373,"source":"google","mapUrl":"https://maps.app.goo.gl/e4Gw7rBs9gtT3FyUA"}],"hasPlaceInfo":true,"collectedAt":"2026-01-08T00:07:01.445Z","failedUrls":[]}
{"videoId":"icQ1e07SS44","places":[{"name":"Copper Beyond Buffet The Sense Pinklao","roadAddress":"The Sense ปิ่นเกล้า ชั้น2 71/50 Borommaratchachonnani Rd, Arun Amarin, Bangkok Noi, Bangkok 10700 태국","phone":"+66 92 281 1818","category":"뷔페 식당","lat":13.7795794,"lng":100.4722661,"source":"google","mapUrl":"https://maps.app.goo.gl/WMvXdQwnMpBefSFp6"}],"hasPlaceInfo":true,"collectedAt":"2026-01-08T00:07:12.375Z","failedUrls":[]}
{"videoId":"u4HBWIh2vEE","places":[{"name":"헹허이텃차우래","roadAddress":"128 3 Ekkamai 14 Alley, Khlong Tan Nuea, Watthana, Bangkok 10110 태국","phone":"+66 94 999 7822","category":"음식점","lat":13.7322401,"lng":100.5844313,"source":"google","mapUrl":"https://maps.app.goo.gl/EBpMgZtfDXPvksrx6"},{"name":"히어 하이","roadAddress":"112, 1 Ekkamai Rd, Khwaeng Khlong Tan Nuea, Watthana, Bangkok 10110 태국","phone":"+66 63 219 9100","category":"해산물 요리 전문식당","lat":13.7322401,"lng":100.5844313,"source":"google","mapUrl":"https://maps.app.goo.gl/89j5x5ekTpgSCGVs9"},{"name":"사바이자이 레스토랑","roadAddress":"87 Ekkamai 3 Alley, Khlong Tan Nuea, Watthana, Bangkok 10110 태국","phone":"+66 2 714 2622","category":"태국 음식점","lat":13.7302707,"lng":100.5837671,"source":"google","mapUrl":"https://maps.app.goo.gl/asNFS8bsUcS5BoqZ7"}],"hasPlaceInfo":true,"collectedAt":"2026-01-08T00:07:30.016Z","failedUrls":[]}
{"videoId":"aE5EMpAjuVM","places":[{"name":"아룬완","roadAddress":"295 อาคาร, PARK X ปาก, Ekkamai 15 Alley, Khlong Tan Nuea, Watthana, Bangkok 10110 태국","phone":"+66 80 994 2299","category":"국수 전문점","lat":13.7350288,"lng":100.5851339,"source":"google","mapUrl":"https://maps.app.goo.gl/BXjSDXp3B6zmQHnn9"},{"name":"티추까 루프탑바","roadAddress":"ตึก ที วัน ชั้น 46, Soi Sukhumvit 40, Phra Khanong, Khlong Toei, Bangkok 10110 태국","phone":"+66 65 878 5562","category":"칵테일바","lat":13.7222251,"lng":100.5779228,"source":"google","mapUrl":"https://maps.app.goo.gl/HYz29BQPdvvQD8Mm6"},{"name":"Ann Guay Tiew Kua Gai","roadAddress":"419 ถ. หลวง Wat Thep Sirin, Pom Prap Sattru Phai, Bangkok 10100 태국","phone":"+66 2 050 0199","category":"국수 전문점","lat":13.7467096,"lng":100.5063287,"source":"google","mapUrl":"https://maps.app.goo.gl/Ffvb6YT61Dg96apZ6"}],"hasPlaceInfo":true,"collectedAt":"2026-01-08T00:08:01.894Z","failedUrls":[]}
{"videoId":"Y5mASiRoicU","places":[{"name":"다이토엔 본점","roadAddress":"1-1-1 Kamikawabatamachi, Hakata Ward, Fukuoka, 812-0026 일본","phone":"+81 50-1808-7562","category":"야키니쿠 전문식당","lat":33.592771,"lng":130.4088611,"source":"google","mapUrl":"https://maps.app.goo.gl/T93nkMpPMTnypN699"}],"hasPlaceInfo":true,"collectedAt":"2026-01-08T00:07:39.702Z","failedUrls":[]}
{"videoId":"cP_LtPCuC14","places":[{"name":"Mott 32 Bangkok","roadAddress":"2nd Floor, The Standard, 114 Naradhiwas Rajanagarindra Rd, Si Lom, Bang Rak, Bangkok 10500 태국","phone":"+66 2 085 8888","category":"중국 음식점","lat":13.7234862,"lng":100.5256923,"source":"google","mapUrl":"https://maps.app.goo.gl/XB2Pxq3czsR8G6Yb7"}],"hasPlaceInfo":true,"collectedAt":"2026-01-08T00:08:14.278Z","failedUrls":[]}
{"videoId":"O1GpOb-WnPI","places":[{"name":"Bamee Jabkang (Original)","roadAddress":"38 ซอย เจริญชัย, Pom Prap, Pom Prap Sattru Phai, Bangkok 10100 태국","phone":"+66 63 827 1775","category":"국수 전문점","lat":13.7424536,"lng":100.5073863,"source":"google","mapUrl":"https://maps.app.goo.gl/zH6hJqgAsJ7WT6Tc8"},{"name":"꾸웨이짭 우언 포차나","roadAddress":"408 Yaowarat Rd, Chakkrawat, Chakkaphat, Bangkok 10100 태국","phone":"+66 61 782 4223","category":"국수 전문점","lat":13.7424536,"lng":100.5073863,"source":"google","mapUrl":"https://maps.app.goo.gl/Dpu4ddZrGBU2SAJx7"},{"name":"Sawang Noodle","roadAddress":"264 Si Phraya Rd, Maha Phruttharam, Bang Rak, Bangkok 10500 태국","phone":"+66 2 236 1772","category":"국수 전문점","lat":13.72431,"lng":100.5223501,"source":"google","mapUrl":"https://maps.app.goo.gl/EnqbGPHVw49G7VTH8"}],"hasPlaceInfo":true,"collectedAt":"2026-01-08T00:08:33.714Z","failedUrls":[]}
{"videoId":"8ortLZPw5u8","places":[{"name":"나이엑 롤 누들","roadAddress":"442 ซอย 9, Samphanthawong, Bangkok 10100 태국","phone":"+66 2 226 4651","category":"국수 전문점","lat":13.7401889,"lng":100.5073912,"source":"google","mapUrl":"https://maps.app.goo.gl/wvPpuCfZGc6rekyy5"},{"name":"헹춘셍 쑨톤꼬싸","roadAddress":"133 Sunthonkosa Rd, Khwaeng Khlong Toei, Khlong Toei, Bangkok 10110 태국","phone":"+66 97 017 7949","category":"국수 전문점","lat":13.7165926,"lng":100.5584301,"source":"google","mapUrl":"https://maps.app.goo.gl/nE9BFtod6Yaw9jqi7"},{"name":"Lim Lao Ngow Fishball Noodle","roadAddress":"299, 301 Song Sawat Rd, Samphanthawong, Bangkok 10100 태국","phone":"+66 81 640 4750","category":"국수 전문점","lat":13.737373,"lng":100.5075978,"source":"google","mapUrl":"https://maps.app.goo.gl/2pA2sX5A3hSgcw2m9"}],"hasPlaceInfo":true,"collectedAt":"2026-01-08T00:09:07.610Z","failedUrls":[]}
{"videoId":"GreL9rcSWgQ","places":[{"name":"셰프정현","roadAddress":"서울 용산구 한강대로40길 14 2층(양지부동산 2층, 우체국 옆길 입구)","jibunAddress":"서울 용산구 한강로2가 143-1","phone":"010-8361-1292","category":"한식","lat":"37.53018322201762","lng":"126.97004746249212","source":"naver","mapUrl":"https://naver.me/I54BsAdN","placeId":"1629451136"}],"hasPlaceInfo":true,"collectedAt":"2026-01-08T00:08:42.299Z","failedUrls":[]}
{"videoId":"jPKIz_SUaPk","places":[{"name":"야키니쿠 바쿠로 하카타점","roadAddress":"1 Chome-1-9-202 Sumiyoshi, Hakata Ward, Fukuoka, 812-0018 일본","phone":"+81 92-710-7029","category":"야키니쿠 전문식당","lat":33.5894885,"lng":130.4097701,"source":"google","mapUrl":"https://maps.app.goo.gl/7aZsgFKNjcEC292g8"},{"name":"돈카츠 니시나카","roadAddress":"4 Chome-11-28 Hakataekiminami, Hakata Ward, Fukuoka, 812-0016 일본","phone":"+81 92-432-1651","category":"돈까스 전문식당","lat":33.5805086,"lng":130.425682,"source":"google","mapUrl":"https://maps.app.goo.gl/c2L8NbRb3cdwAh8o9"},{"name":"대중술집 교자 탓짱 나카스가와바타점","roadAddress":"3-11 Kamikawabatamachi, Hakata Ward, Fukuoka, 812-0026 일본","phone":"+81 92-283-4129","category":"이자카야","lat":33.5924357,"lng":130.410259,"source":"google","mapUrl":"https://maps.app.goo.gl/9wRVGFpWKqS1mzcr9"}],"hasPlaceInfo":true,"collectedAt":"2026-01-08T00:09:43.339Z","failedUrls":[]}
{"videoId":"h56R9TNlpNM","places":[{"name":"Arno's Butcher and Eatery","roadAddress":"2090, 2 Naradhiwas Rajanagarindra Rd, Chong Nonsi, Yan Nawa, Bangkok 10120 태국","phone":"+66 2 678 8340","category":"스테이크 전문점","lat":13.704913,"lng":100.5316536,"source":"google","mapUrl":"https://maps.app.goo.gl/AXcsNGXdcXpBrzsm8"},{"name":"무빠라 히어로 컥우아 사거리점","roadAddress":"ตลาดยอด ใกล้ๆปาก Khaosan Rd, Bangkok 10200 태국","phone":"+66 98 905 8032","category":"태국 음식점","lat":13.7578614,"lng":100.4947557,"source":"google","mapUrl":"https://maps.app.goo.gl/YUPhVJketDb5gMHg7"}],"hasPlaceInfo":true,"collectedAt":"2026-01-08T00:09:30.770Z","failedUrls":[]}
{"videoId":"QM4mIlRCX-Y","places":[{"name":"카밀로 라자네리아","roadAddress":"서울 마포구 동교로12길 41 B1","jibunAddress":"서울 마포구 서교동 382-13","phone":"0507-1346-8622","category":"양식","lat":"37.55254924049563","lng":"126.91289384752831","debug_container_text":"도로명서울 마포구 동교로12길 41 B1복사\n지번서울 마포구 서교동 382-13복사\n우편번호\n우편번호\n04035복사\n안내 레이어 닫기","source":"naver","mapUrl":"https://naver.me/G1syT9Nw","placeId":"1163289569"}],"hasPlaceInfo":true,"collectedAt":"2026-01-08T00:10:01.335Z","failedUrls":[]}
{"videoId":"bKyaNq2ppZE","places":[{"name":"한와담 한남본점","roadAddress":"서울특별시 용산구 독서당로 65-1","phone":"02-749-7905","category":"한국식 소고기 전문 음식점","lat":37.5338062,"lng":127.0051741,"source":"google","mapUrl":"https://maps.app.goo.gl/dgAgwFqKsj1AFbbA8"},{"name":"한와담 한남본점","roadAddress":"서울 용산구 독서당로 65-1 2층","jibunAddress":"서울 용산구 한남동 75-1","phone":"0507-1475-7919","category":"소고기구이","lat":"37.533832216761816","lng":"127.0077535313432","debug_container_text":"도로명서울 용산구 독서당로 65-1 2층복사\n지번서울 용산구 한남동 75-1복사\n우편번호\n우편번호\n04419복사\n안내 레이어 닫기","source":"naver","mapUrl":"https://naver.me/xs8hw4Ve","placeId":"33797429"}],"hasPlaceInfo":true,"collectedAt":"2026-01-08T00:09:59.133Z","failedUrls":[]}
{"videoId":"oifxlWbgxjM","places":[{"name":"Chim Chum Suthiporn","roadAddress":"532 ถนน ประชาสงเคราะห์ Din Daeng, Bangkok 10400 태국","phone":"+66 81 810 9114","category":"음식점","lat":13.7611182,"lng":100.5540206,"source":"google","mapUrl":"https://maps.app.goo.gl/btBSyMKco3ekp6MaA"},{"name":"Leng Zapp Volcano Ribs","roadAddress":"93 Ratchadaphisek Rd, Din Daeng, Bangkok 10400 태국","phone":"+66 81 374 7554","category":"음식점","lat":13.7562806,"lng":100.5667923,"source":"google","mapUrl":"https://maps.app.goo.gl/5hhRP6GF7k3N8ymY7"}],"hasPlaceInfo":true,"collectedAt":"2026-01-08T00:10:27.613Z","failedUrls":[]}
{"videoId":"q7mDx1mi4qI","places":[{"name":"야키니쿠 챔피언 JR하카타시티점","roadAddress":"일본 〒812-0012 Fukuoka, Hakata Ward, Hakataekichuogai, 1−1 JR博多シティ １０Ｆ","phone":"+81 92-409-6812","category":"야키니쿠 전문식당","lat":33.5892757,"lng":130.4179124,"source":"google","mapUrl":"https://maps.app.goo.gl/csi5z9GgRapGMbXm6"},{"name":"오사카 야키니쿠・호르몬 후타고 다이묘","roadAddress":"일본 〒810-0041 Fukuoka, Chuo Ward, Daimyo, 1 Chome−9−6 ボノボノ大名ビル１Ｆ","phone":"+81 92-791-2539","category":"야키니쿠 전문식당","lat":33.5805307,"lng":130.4033588,"source":"google","mapUrl":"https://maps.app.goo.gl/DFrQTwtFVvCzEsJu5"}],"hasPlaceInfo":true,"collectedAt":"2026-01-08T00:10:25.301Z","failedUrls":[]}
{"videoId":"pBT7f3xyEJQ","places":[{"name":"원조부안집 신대방삼거리역점","roadAddress":"서울특별시 동작구 상도로12길 20","phone":"050-71495-8314","category":"숯불구이/바베큐전문점","lat":37.4992093,"lng":126.9266958,"source":"google","mapUrl":"https://maps.app.goo.gl/mUqHTi6JKC5Fh5hQA"},{"name":"원조부안집 신대방삼거리역점","roadAddress":"서울 동작구 상도로12길 20 1층","jibunAddress":"서울 동작구 대방동 337-5","phone":"0507-1495-8314","category":"돼지고기구이","lat":"37.4992064527231","lng":"126.929271111277","debug_container_text":"도로명서울 동작구 상도로12길 20 1층복사\n지번서울 동작구 대방동 337-5복사\n우편번호\n우편번호\n07041복사\n안내 레이어 닫기","source":"naver","mapUrl":"https://naver.me/FWfD4gNp","placeId":"1954649825"}],"hasPlaceInfo":true,"collectedAt":"2026-01-08T00:10:49.630Z","failedUrls":[]}
{"videoId":"7A9lO6-iVBk","places":[{"name":"와타나 파닛","roadAddress":"336 338 Ekkamai Rd, Khlong Tan Nuea, Watthana, Bangkok 10110 태국","phone":"+66 2 391 7264","category":"태국 음식점","lat":13.7341664,"lng":100.5851084,"source":"google","mapUrl":"https://maps.app.goo.gl/U1cAXW8babxih9UU7"},{"name":"룽르엉","roadAddress":"10/3 Sukhumvit 26, Khlong Tan, Khlong Toei, Bangkok 10110 태국","phone":"+66 84 527 1640","category":"국수 전문점","lat":13.7283149,"lng":100.5679161,"source":"google","mapUrl":"https://maps.app.goo.gl/Fhoip5HwHkNmpVEr7"}],"hasPlaceInfo":true,"collectedAt":"2026-01-08T00:10:47.436Z","failedUrls":[]}
{"videoId":"XjysDStkNss","places":[{"name":"짜런쌩 씰롬","roadAddress":"492/6 ถ.สีลม ติด Soi Charoen Krung 49, Suriya Wong, Bang Rak, Bangkok 10500 태국","phone":"+66 2 234 8036","category":"태국 음식점","lat":13.7228069,"lng":100.5143076,"source":"google","mapUrl":"https://maps.app.goo.gl/TNopvTA1vu2672RQ7"},{"name":"폴로 프라이드 치킨, 까이텃 쩨끼","roadAddress":"137/1-3 Sanam Khli Alley, Lumphini, Pathum Wan, Bangkok 10330 태국","phone":"+66 81 300 4444","category":"태국 음식점","lat":13.732232,"lng":100.5433861,"source":"google","mapUrl":"https://maps.app.goo.gl/mJ3wCwxabtvimVmM6"}],"hasPlaceInfo":true,"collectedAt":"2026-01-08T00:11:11.375Z","failedUrls":[]}
{"videoId":"VbXVQwBvC4E","places":[{"name":"매월농원","roadAddress":"광주광역시","phone":"062-373-5164 ext. 5","category":"고기 요리 전문점","lat":35.1195267,"lng":126.8438055,"source":"google","mapUrl":"https://maps.app.goo.gl/wzyfSQSdQG7vMp7E8"},{"name":"유진정","roadAddress":"전라남도 담양군 금성면 시암골로 17","phone":"061-381-8500","category":"음식점","lat":35.3393922,"lng":127.0182557,"source":"google","mapUrl":"https://maps.app.goo.gl/8J6eYnKBQpDzw5ve9"},{"name":"매월농원","roadAddress":"광주 서구 전평길 66","jibunAddress":"광주 서구 매월동 355-3","phone":"062-373-5164","category":"오리요리","lat":"35.11951610991068","lng":"126.8463720249395","debug_container_text":"도로명광주 서구 전평길 66복사\n지번광주 서구 매월동 355-3복사\n우편번호\n우편번호\n62070복사\n안내 레이어 닫기","source":"naver","mapUrl":"https://naver.me/xvLAjfvb","placeId":"13570411"},{"name":"유진정","roadAddress":"전남 담양군 금성면 시암골로 17","jibunAddress":"전남 담양군 금성면 석현리 544-2","phone":"061-381-8500","category":"한식","lat":"35.338738507544306","lng":"127.02193369149644","debug_container_text":"도로명전남 담양군 금성면 시암골로 17복사\n지번전남 담양군 금성면 석현리 544-2복사\n우편번호\n우편번호\n57306복사\n안내 레이어 닫기","source":"naver","mapUrl":"https://naver.me/IDo2jpW8","placeId":"1532258398"}],"hasPlaceInfo":true,"collectedAt":"2026-01-08T00:11:23.573Z","failedUrls":[]}
{"videoId":"j-yZs8wxxpY","places":[{"name":"충청북도 청주시 상당구 남일면 단재로 734","roadAddress":null,"phone":null,"category":null,"lat":36.5659639,"lng":127.5068424,"source":"google","mapUrl":"https://maps.app.goo.gl/99aLNwLZg3JN7k3R6"},{"name":"명성축산물생고기","roadAddress":"충북 청주시 상당구 남일면 단재로 734","jibunAddress":"충북 청주시 상당구 남일면 고은리 456-12","phone":"0507-1322-4992","category":"정육식당","lat":"36.5659601486208","lng":"127.509481058574","debug_container_text":"도로명충북 청주시 상당구 남일면 단재로 734복사\n지번충북 청주시 상당구 남일면 고은리 456-12복사\n우편번호\n우편번호\n28190복사\n안내 레이어 닫기","source":"naver","mapUrl":"https://naver.me/Fsq03qsn","placeId":"17808987"}],"hasPlaceInfo":true,"collectedAt":"2026-01-08T00:11:41.446Z","failedUrls":[]}
{"videoId":"xU1PqRH9tck","places":[{"name":"동방생고기","roadAddress":"충청북도 청주시 청원구 내덕동 305-6번지 KR","phone":null,"category":"한식 고기구이 레스토랑","lat":36.6570432,"lng":127.4828165,"source":"google","mapUrl":"https://maps.app.goo.gl/RAGMFhUaZZRXtzee7"},{"name":"간장삼겹살 동방생고기 본점","roadAddress":"충북 청주시 청원구 새터로 46 2층","jibunAddress":"충북 청주시 청원구 내덕동 305-6","phone":"043-222-3335","category":"정육식당","lat":"36.65707491950006","lng":"127.48540814943792","debug_container_text":"도로명충북 청주시 청원구 새터로 46 2층복사\n지번충북 청주시 청원구 내덕동 305-6복사\n우편번호\n우편번호\n28479복사\n안내 레이어 닫기","source":"naver","mapUrl":"https://naver.me/FFigqFt1","placeId":"17326194"}],"hasPlaceInfo":true,"collectedAt":"2026-01-08T00:11:39.261Z","failedUrls":[]}
{"videoId":"TKdlwzo5lOU","places":[{"name":"고반식당 대전둔산사학연금점","roadAddress":"대전광역시 서구 한밭대로 809 1층","phone":"050-71394-9283","category":"음식점","lat":36.3583027,"lng":127.3863336,"source":"google","mapUrl":"https://maps.app.goo.gl/keCS2dZxCH6U7Aka6"},{"name":"고반식당 둔산사학연금점","roadAddress":"대전 서구 한밭대로 809 1층","jibunAddress":"대전 서구 둔산동 929","phone":"0507-1394-9283","category":"육류,고기요리","lat":"36.35825793743143","lng":"127.38886149131837","debug_container_text":"도로명대전 서구 한밭대로 809 1층복사\n지번대전 서구 둔산동 929복사\n우편번호\n우편번호\n35209복사\n안내 레이어 닫기","source":"naver","mapUrl":"https://naver.me/G6fRsNvO","placeId":"1285361292"}],"hasPlaceInfo":true,"collectedAt":"2026-01-08T00:12:00.677Z","failedUrls":[]}
{"videoId":"awT3_4Qsw9k","places":[{"name":"암소한마리","roadAddress":"경상남도 거창군 거창읍 대동리 750-3","phone":"055-944-1253","category":"음식점","lat":35.689834,"lng":127.9146894,"source":"google","mapUrl":"https://maps.app.goo.gl/AUa6oqoZKs55E6DZ7"},{"name":"암소한마리","roadAddress":"경남 거창군 거창읍 강변로9길 71","jibunAddress":"경남 거창군 거창읍 대동리 750-3","phone":"055-944-1253","category":"한식","lat":"35.6896950069881","lng":"127.917075888639","debug_container_text":"도로명경남 거창군 거창읍 강변로9길 71복사\n지번경남 거창군 거창읍 대동리 750-3복사\n우편번호\n우편번호\n50134복사\n안내 레이어 닫기","source":"naver","mapUrl":"https://naver.me/GeW65Gae","placeId":"34268928"}],"hasPlaceInfo":true,"collectedAt":"2026-01-08T00:11:58.483Z","failedUrls":[]}
{"videoId":"s_DAS9zfKxc","places":[{"name":"풍류각k-bbq","roadAddress":"서울특별시 마포구 월드컵로 33","phone":"02-332-9279","category":"숯불구이/바베큐전문점","lat":37.5560577,"lng":126.9064155,"source":"google","mapUrl":"https://maps.app.goo.gl/iRBxxaYK7g7wyVdg9"},{"name":"풍류각","roadAddress":"서울 마포구 월드컵로 33 1층","jibunAddress":"서울 마포구 합정동 426-5","phone":"0507-1425-9279","category":"육류,고기요리","lat":"37.55234039831552","lng":"126.91193442063597","debug_container_text":"도로명서울 마포구 월드컵로 33 1층복사\n지번서울 마포구 합정동 426-5복사\n우편번호\n우편번호\n04023복사\n안내 레이어 닫기","source":"naver","mapUrl":"https://naver.me/xFrUV18M","placeId":"1655037566"}],"hasPlaceInfo":true,"collectedAt":"2026-01-08T00:12:22.657Z","failedUrls":[]}
{"videoId":"aWQfl-rfJgc","places":[{"name":"돈소쿠노 카도야","roadAddress":"일본 〒556-0011 Osaka, Naniwa Ward, Nanbanaka, 1 Chome−4−15 南松竹マンション","phone":"+81 6-6631-7956","category":"곱창구이 전문점","lat":34.665307,"lng":135.4959494,"source":"google","mapUrl":"https://maps.app.goo.gl/xfbXB2rTYP41RZSa7"},{"name":"오사카 야키통 센터","roadAddress":"3-19 Nanbasennichimae, Chuo Ward, Osaka, 542-0075 일본","phone":"+81 6-4396-8109","category":"이자카야","lat":34.6653703,"lng":135.499337,"source":"google","mapUrl":"https://maps.app.goo.gl/twKGum9EkF9wN4RN6"}],"hasPlaceInfo":true,"collectedAt":"2026-01-08T00:12:20.325Z","failedUrls":[]}
{"videoId":"7sGFccTkZmA","places":[{"name":"현보참숯구이","roadAddress":"거제시","phone":null,"category":"음식점","lat":34.8936507,"lng":128.6261692,"source":"google","mapUrl":"https://maps.app.goo.gl/8yxYMT6ngpm81Vi69"},{"name":"현보참숯구이","roadAddress":"경남 거제시 중곡로1길 18-5","jibunAddress":"경남 거제시 고현동 1013-2","phone":"055-635-0045","category":"육류,고기요리","lat":"34.8936432004729","lng":"128.628707059864","debug_container_text":"도로명경남 거제시 중곡로1길 18-5복사\n지번경남 거제시 고현동 1013-2복사\n우편번호\n우편번호\n53249복사\n안내 레이어 닫기","source":"naver","mapUrl":"https://naver.me/FfWLjxfI","placeId":"33377823"}],"hasPlaceInfo":true,"collectedAt":"2026-01-08T00:12:41.404Z","failedUrls":[]}
{"videoId":"bW4etZix3n4","places":[{"name":"미우","roadAddress":"서울특별시 강남구 압구정동 압구정로 113-22","phone":"02-544-7775","category":"한국식 소고기 전문 음식점","lat":37.5247058,"lng":127.0170493,"source":"google","mapUrl":"https://maps.app.goo.gl/hmNczpyp3hvDHnMa9"},{"name":"미우","roadAddress":"서울 강남구 압구정로 113-22 지하일층 미우","jibunAddress":"서울 강남구 압구정동 415","phone":"02-544-7775","category":"소고기구이","lat":"37.52482262258544","lng":"127.0196479112386","debug_container_text":"도로명서울 강남구 압구정로 113-22 지하일층 미우복사\n지번서울 강남구 압구정동 415복사\n우편번호\n우편번호\n06000복사\n안내 레이어 닫기","source":"naver","mapUrl":"https://naver.me/G6yA6h0C","placeId":"35877617"}],"hasPlaceInfo":true,"collectedAt":"2026-01-08T00:12:39.285Z","failedUrls":[]}
{"videoId":"6bWOk579bpg","places":[{"name":"서울안심축산 마포직영점 / Seoul Anshim Butchery Mapo Direct Branch / 首尔安心畜产 麻浦直营店 / ソウルアンシム畜産 麻浦直営店","roadAddress":"서울특별시 마포구 토정로35길 11","phone":"050-71392-1515","category":"한식 고기구이 레스토랑","lat":37.5404265,"lng":126.9414876,"source":"google","mapUrl":"https://maps.app.goo.gl/fwcKXJZ9HrKnBBzQA"},{"name":"서울안심축산 마포용강점","roadAddress":"서울 마포구 토정로35길 11 인우빌딩 1층","jibunAddress":"서울 마포구 용강동 512","phone":"0507-1392-1515","category":"육류,고기요리","lat":"37.54045687119684","lng":"126.9440164317895","debug_container_text":"도로명서울 마포구 토정로35길 11 인우빌딩 1층복사\n지번서울 마포구 용강동 512복사\n우편번호\n우편번호\n04166복사\n안내 레이어 닫기","source":"naver","mapUrl":"https://naver.me/xpPaVqRc","placeId":"1424853675"}],"hasPlaceInfo":true,"collectedAt":"2026-01-08T00:13:02.647Z","failedUrls":[]}
{"videoId":"lglQ2F6KnM8","places":[{"name":"최강금 돈까스","roadAddress":"서울특별시 마포구 월드컵로3길 31-30","phone":"02-332-3646","category":"돈까스 전문식당","lat":37.5498728,"lng":126.9083358,"source":"google","mapUrl":"https://maps.app.goo.gl/aAXVrkJjvxrsYKJ7A"},{"name":"최강금돈까스","roadAddress":"서울 마포구 월드컵로3길 31-30","jibunAddress":"서울 마포구 합정동 388-15","phone":"0507-1328-3646","category":"돈가스","lat":"37.549916868129536","lng":"126.91093915717002","debug_container_text":"도로명서울 마포구 월드컵로3길 31-30복사\n지번서울 마포구 합정동 388-15복사\n우편번호\n우편번호\n04025복사\n안내 레이어 닫기","source":"naver","mapUrl":"https://naver.me/F2YffZZF","placeId":"1508260607"}],"hasPlaceInfo":true,"collectedAt":"2026-01-08T00:13:00.351Z","failedUrls":[]}
{"videoId":"mVfpcrPqlnQ","places":[{"name":"제국한우짝갈비","roadAddress":"서울특별시 강남구 언주로148길 14","phone":"010-2247-6267","category":"한국식 소고기 전문 음식점","lat":37.5205991,"lng":127.0334848,"source":"google","mapUrl":"https://maps.app.goo.gl/PUGGvZCPGT5fEvqM8"},{"name":"제국한우짝갈비 강남점","roadAddress":"서울 강남구 언주로148길 14 나동 2층 제국한우짝갈비","jibunAddress":"서울 강남구 논현동 98-12","phone":"0507-1395-5604","category":"육류,고기요리","lat":"37.520450854963826","lng":"127.03551983007482","debug_container_text":"도로명서울 강남구 언주로148길 14 나동 2층 제국한우짝갈비복사\n지번서울 강남구 논현동 98-12복사\n우편번호\n우편번호\n06057복사\n안내 레이어 닫기","source":"naver","mapUrl":"https://naver.me/xpPo09yR","placeId":"1569485321"}],"hasPlaceInfo":true,"collectedAt":"2026-01-08T00:13:22.930Z","failedUrls":[]}
{"videoId":"1dsVJieQ3Jg","places":[{"name":"원조 언양불고기","roadAddress":"부산광역시 수영구 광남로84번길 16","phone":"051-756-1711","category":"한국식 소고기 전문 음식점","lat":36.3224459,"lng":126.7469006,"source":"google","mapUrl":"https://goo.gl/maps/FXEcr57Hs4eY1nNw7"},{"name":"원조언양불고기","roadAddress":"부산 수영구 광남로84번길 16 원조언양불고기","jibunAddress":"부산 수영구 광안동 204-8","phone":"051-756-1710","category":"육류,고기요리","lat":"35.14911571548767","lng":"129.11468791739895","debug_container_text":"도로명부산 수영구 광남로84번길 16 원조언양불고기복사\n지번부산 수영구 광안동 204-8복사\n우편번호\n우편번호\n48303복사\n안내 레이어 닫기","source":"naver","mapUrl":"https://naver.me/GPFSqxL9","placeId":"11779592"}],"hasPlaceInfo":true,"collectedAt":"2026-01-08T00:13:20.734Z","failedUrls":[]}
{"videoId":"014prehYRzU","places":[{"name":"카와카츠 합정점","roadAddress":"서울특별시 마포구 양화로 78-7","phone":"070-7543-6317","category":"돈까스 전문식당","lat":37.5515157,"lng":126.9148357,"source":"google","mapUrl":"https://goo.gl/maps/4D4yKsE1a7JV7pGR9"},{"name":"카와카츠 합정점","roadAddress":"서울 마포구 양화로 78-7 1층 카와카츠","jibunAddress":"서울 마포구 서교동 395-154","phone":"0507-1365-6317","category":"돈가스","lat":"37.5515073363916","lng":"126.917421754867","debug_container_text":"도로명서울 마포구 양화로 78-7 1층 카와카츠복사\n지번서울 마포구 서교동 395-154복사\n우편번호\n우편번호\n04043복사\n안내 레이어 닫기","source":"naver","mapUrl":"https://naver.me/FJ6og2hG","placeId":"1152661518"}],"hasPlaceInfo":true,"collectedAt":"2026-01-08T00:13:44.548Z","failedUrls":[]}
{"videoId":"62b_BxI6ulc","places":[{"name":"화야","roadAddress":"서울특별시 서초구 마방로6길 7-46","phone":null,"category":"음식점","lat":37.4761002,"lng":127.0408983,"source":"google","mapUrl":"https://goo.gl/maps/XyBRM2Eoa6AhSBXa6"},{"name":"화야","roadAddress":"서울 서초구 마방로6길 7-46 2층","jibunAddress":"서울 서초구 양재동 267-4","phone":"0507-1471-0617","category":"한식","lat":"37.4760925524363","lng":"127.043480408439","debug_container_text":"도로명서울 서초구 마방로6길 7-46 2층복사\n지번서울 서초구 양재동 267-4복사\n우편번호\n우편번호\n06776복사\n안내 레이어 닫기","source":"naver","mapUrl":"https://naver.me/xPpqxzlA","placeId":"1400457849"}],"hasPlaceInfo":true,"collectedAt":"2026-01-08T00:13:42.355Z","failedUrls":[]}
{"videoId":"gpcYxA9sVC8","places":[{"name":"태백산","roadAddress":"경기도 김포시 양촌읍 양곡3로1번길 26-5","phone":"031-997-9233","category":"한식 고기구이 레스토랑","lat":37.6535902,"lng":126.6286828,"source":"google","mapUrl":"https://goo.gl/maps/vaRVD2WDkiWfTKBZ7"},{"name":"김포 태백산","roadAddress":"경기 김포시 양촌읍 양곡3로1번길 26-5","jibunAddress":"경기 김포시 양촌읍 양곡리 1321-1","phone":"0507-1422-9233","category":"육류,고기요리","lat":"37.65367289099899","lng":"126.63128625734761","debug_container_text":"도로명경기 김포시 양촌읍 양곡3로1번길 26-5복사\n지번경기 김포시 양촌읍 양곡리 1321-1복사\n우편번호\n우편번호\n10062복사\n안내 레이어 닫기","source":"naver","mapUrl":"https://naver.me/x8ligP7q","placeId":"1715338955"}],"hasPlaceInfo":true,"collectedAt":"2026-01-08T00:14:03.484Z","failedUrls":[]}
{"videoId":"3qa5bObAZqk","places":[{"name":"헤키","roadAddress":"서울특별시 마포구 동교로9길 33 1층 헤키","phone":"070-7773-9870","category":"돈까스 전문식당","lat":37.5556842,"lng":126.9053121,"source":"google","mapUrl":"https://goo.gl/maps/QagQsPpfTZXAUbiv9"},{"name":"헤키","roadAddress":"서울 마포구 동교로9길 33 1층 헤키","jibunAddress":"서울 마포구 망원동 379-25","phone":"070-7773-9870","category":"돈가스","lat":"37.5552408925752","lng":"126.90978977413248","debug_container_text":"도로명서울 마포구 동교로9길 33 1층 헤키복사\n지번서울 마포구 망원동 379-25복사\n우편번호\n우편번호\n04013복사\n안내 레이어 닫기","source":"naver","mapUrl":"https://naver.me/xKQWIN6V","placeId":"1532303105"}],"hasPlaceInfo":true,"collectedAt":"2026-01-08T00:14:01.359Z","failedUrls":[]}
{"videoId":"LW7aOQdJAAE","places":[{"name":"본디 잠실본점","roadAddress":"서울특별시 송파구 백제고분로41길 18 1층","phone":"02-6080-3636","category":"숯불구이/바베큐전문점","lat":37.5077239,"lng":127.1052297,"source":"google","mapUrl":"https://goo.gl/maps/nU5HMjtzKbh7QMcy6"},{"name":"본디 잠실본점","roadAddress":"서울 송파구 백제고분로41길 18 1층 일부","jibunAddress":"서울 송파구 송파동 24-7","phone":"0507-1463-3636","category":"육류,고기요리","lat":"37.5076623603615","lng":"127.107740167024","debug_container_text":"도로명서울 송파구 백제고분로41길 18 1층 일부복사\n지번서울 송파구 송파동 24-7복사\n우편번호\n우편번호\n05622복사\n안내 레이어 닫기","source":"naver","mapUrl":"https://naver.me/FlxeIdSu","placeId":"1197609869"}],"hasPlaceInfo":true,"collectedAt":"2026-01-08T00:14:26.240Z","failedUrls":[]}
{"videoId":"5OOjwMgKzP4","places":[{"name":"라살루드 험프리스","roadAddress":"경기 평택시 팽성읍 안정순환로 161 라살루드 험프리스","jibunAddress":"경기 평택시 팽성읍 안정리 101-12","phone":"031-654-8686","category":"스테이크,립","lat":"36.9622158901952","lng":"127.041950151068","debug_container_text":"도로명경기 평택시 팽성읍 안정순환로 161 라살루드 험프리스복사\n지번경기 평택시 팽성읍 안정리 101-12복사\n우편번호\n우편번호\n17978복사\n안내 레이어 닫기","source":"naver","mapUrl":"https://naver.me/GmV5ahAD","placeId":"1427560904"}],"hasPlaceInfo":true,"collectedAt":"2026-01-08T00:14:09.964Z","failedUrls":[]}
{"videoId":"2ymf7uwh6-M","places":[{"name":"이치류 홍대본점","roadAddress":"서울특별시 마포구 잔다리로3안길 44","phone":"02-3144-1312","category":"양고기 바베큐 전문점","lat":37.5506045,"lng":126.9166133,"source":"google","mapUrl":"https://goo.gl/maps/A8Wco18hzQ6VLkb8A"},{"name":"이치류 홍대본점","roadAddress":"서울 마포구 잔다리로3안길 44","jibunAddress":"서울 마포구 서교동 395-124","phone":"02-3144-1312","category":"양갈비","lat":"37.5506507881727","lng":"126.919158667489","debug_container_text":"도로명서울 마포구 잔다리로3안길 44복사\n지번서울 마포구 서교동 395-124복사\n우편번호\n우편번호\n04043복사\n안내 레이어 닫기","source":"naver","mapUrl":"https://naver.me/52hjgBcQ","placeId":"21647058"}],"hasPlaceInfo":true,"collectedAt":"2026-01-08T00:14:46.305Z","failedUrls":[]}
{"videoId":"KKTnLS79tUQ","places":[{"name":"산청숯불가든 마곡","roadAddress":"서울특별시 강서구 마곡중앙8로 85","phone":"02-2659-8188","category":"숯불구이/바베큐전문점","lat":37.5611169,"lng":126.8343465,"source":"google","mapUrl":"https://goo.gl/maps/ocBPpcP9xQi6pNey8"},{"name":"산청숯불가든 마곡","roadAddress":"서울 강서구 마곡중앙8로 85 1층 102~108호","jibunAddress":"서울 강서구 마곡동 791-9","phone":"02-2659-8188","category":"육류,고기요리","lat":"37.561118406167175","lng":"126.83698411396983","debug_container_text":"도로명서울 강서구 마곡중앙8로 85 1층 102~108호복사\n지번서울 강서구 마곡동 791-9복사\n우편번호\n우편번호\n07794복사\n안내 레이어 닫기","source":"naver","mapUrl":"https://naver.me/G2VmnbK7","placeId":"1774474024"}],"hasPlaceInfo":true,"collectedAt":"2026-01-08T00:14:44.168Z","failedUrls":[]}
{"videoId":"prScOQqsKr0","places":[{"name":"기밀","roadAddress":"광주광역시 북구 문흥동 번지 1층 743-6 101호","phone":null,"category":"와인 바","lat":35.1764391,"lng":126.9144848,"source":"google","mapUrl":"https://goo.gl/maps/6aa8btpQmagTid2UA"},{"name":"기밀","roadAddress":"광주 북구 우치로100번길 84 1층 101호","jibunAddress":"광주 북구 문흥동 743-6","phone":"0507-1403-7509","category":"양식","lat":"35.1764997119621","lng":"126.917029785529","debug_container_text":"도로명광주 북구 우치로100번길 84 1층 101호복사\n지번광주 북구 문흥동 743-6복사\n우편번호\n우편번호\n61189복사\n안내 레이어 닫기","source":"naver","mapUrl":"https://naver.me/xI2mzQfp","placeId":"1197611578"}],"hasPlaceInfo":true,"collectedAt":"2026-01-08T00:15:04.051Z","failedUrls":[]}
{"videoId":"iyj27Lh8hmk","places":[{"name":"유첨지","roadAddress":"전북특별자치도 완주군 봉동읍 원둔산1길 31 유첨지","phone":"063-262-6769","category":"삼겹살 전문점","lat":35.9606728,"lng":127.1246005,"source":"google","mapUrl":"https://goo.gl/maps/qJZMDUUa48kmQq2P7"},{"name":"유첨지","roadAddress":"전북 완주군 봉동읍 원둔산1길 31 102호 유첨지","jibunAddress":"전북 완주군 봉동읍 둔산리 900-3","phone":"0507-1361-6769","category":"육류,고기요리","lat":"35.9605824071252","lng":"127.127127626763","debug_container_text":"도로명전북 완주군 봉동읍 원둔산1길 31 102호 유첨지복사\n지번전북 완주군 봉동읍 둔산리 900-3복사\n우편번호\n우편번호\n55319복사\n안내 레이어 닫기","source":"naver","mapUrl":"https://naver.me/x8iPyoBq","placeId":"1062627382"}],"hasPlaceInfo":true,"collectedAt":"2026-01-08T00:15:01.927Z","failedUrls":[]}
{"videoId":"dNz4-OaP7Bk","places":[{"name":"돼지물산","roadAddress":"광주광역시 동구 필문대로287번길 21-1","phone":"050-71338-2562","category":"정육식당","lat":35.1450167,"lng":126.9267357,"source":"google","mapUrl":"https://goo.gl/maps/vAGbQaAB9Fiz8hqA8"},{"name":"돼지물산","roadAddress":"광주 동구 필문대로287번길 21-1 돼지물산(구.광주새마을식당)","jibunAddress":"광주 동구 지산동 507-29","phone":"0507-1338-2562","category":"돼지고기구이","lat":"35.14499776199728","lng":"126.92927441231583","debug_container_text":"도로명광주 동구 필문대로287번길 21-1 돼지물산(구.광주새마을식당)복사\n지번광주 동구 지산동 507-29복사\n우편번호\n우편번호\n61449복사\n안내 레이어 닫기","source":"naver","mapUrl":"https://naver.me/xMEd7OQ6","placeId":"1145840369"}],"hasPlaceInfo":true,"collectedAt":"2026-01-08T00:15:23.701Z","failedUrls":[]}
{"videoId":"Ohb_2euwVfE","places":[{"name":"Google Maps","roadAddress":null,"phone":null,"category":null,"lat":35.1710573,"lng":126.8653985,"source":"google","mapUrl":"https://goo.gl/maps/hbqWQcvTA6Y7QgEX9"},{"name":"텐진야끼니꾸 동천본점","roadAddress":"광주 서구 유림로98번길 37 1층 텐진야끼니꾸","jibunAddress":"광주 서구 동천동 634","phone":"0507-1438-1042","category":"소고기구이","lat":"35.1710939966402","lng":"126.867966035164","debug_container_text":"도로명광주 서구 유림로98번길 37 1층 텐진야끼니꾸복사\n지번광주 서구 동천동 634복사\n우편번호\n우편번호\n61903복사\n안내 레이어 닫기","source":"naver","mapUrl":"https://naver.me/FS6OsALc","placeId":"1114723397"}],"hasPlaceInfo":true,"collectedAt":"2026-01-08T00:15:21.536Z","failedUrls":[]}
{"videoId":"KHdYQNJ0DXk","places":[{"name":"임옥","roadAddress":"광주 광산구 임방울대로826번길 19-20 보이저 2층 '임옥'","jibunAddress":"광주 광산구 쌍암동 694-28","phone":"0507-1412-5023","category":"소고기구이","lat":"35.2163762661915","lng":"126.849477048978","debug_container_text":"도로명광주 광산구 임방울대로826번길 19-20 보이저 2층 '임옥'복사\n지번광주 광산구 쌍암동 694-28복사\n우편번호\n우편번호\n62279복사\n안내 레이어 닫기","source":"naver","mapUrl":"https://naver.me/GWr97Uh1","placeId":"1588672038"}],"hasPlaceInfo":true,"collectedAt":"2026-01-08T00:15:41.287Z","failedUrls":[]}
{"videoId":"WKMvapRZhnw","places":[{"name":"엘픽","roadAddress":"서울특별시 강남구 청담동 11-12","phone":"050-71489-7006","category":"서양음식전문점","lat":37.5222983,"lng":127.0440312,"source":"google","mapUrl":"https://goo.gl/maps/3ohzCb5fTjwMFRWE7"},{"name":"엘픽","roadAddress":"서울 강남구 도산대로78길 25 1층","jibunAddress":"서울 강남구 청담동 11-12","phone":"070-4264-0033","category":"스테이크,립","lat":"37.522349918227675","lng":"127.04660681759634","debug_container_text":"도로명서울 강남구 도산대로78길 25 1층복사\n지번서울 강남구 청담동 11-12복사\n우편번호\n우편번호\n06063복사\n안내 레이어 닫기","source":"naver","mapUrl":"https://naver.me/x6Uv2HDD","placeId":"1317027054"}],"hasPlaceInfo":true,"collectedAt":"2026-01-08T00:15:39.116Z","failedUrls":[]}
{"videoId":"pAsMqiKalD8","places":[{"name":"유첨지","roadAddress":"전북특별자치도 완주군 봉동읍 원둔산1길 31 유첨지","phone":"063-262-6769","category":"삼겹살 전문점","lat":35.9606728,"lng":127.1246005,"source":"google","mapUrl":"https://goo.gl/maps/qJZMDUUa48kmQq2P7"},{"name":"유첨지","roadAddress":"전북 완주군 봉동읍 원둔산1길 31 102호 유첨지","jibunAddress":"전북 완주군 봉동읍 둔산리 900-3","phone":"0507-1361-6769","category":"육류,고기요리","lat":"35.9605824071252","lng":"127.127127626763","debug_container_text":"도로명전북 완주군 봉동읍 원둔산1길 31 102호 유첨지복사\n지번전북 완주군 봉동읍 둔산리 900-3복사\n우편번호\n우편번호\n55319복사\n안내 레이어 닫기","source":"naver","mapUrl":"https://naver.me/x8iPyoBq","placeId":"1062627382"}],"hasPlaceInfo":true,"collectedAt":"2026-01-08T00:16:00.869Z","failedUrls":[]}
{"videoId":"OHqtN1ub9tM","places":[{"name":"산청숯불가든 마곡","roadAddress":"서울특별시 강서구 마곡중앙8로 85","phone":"02-2659-8188","category":"숯불구이/바베큐전문점","lat":37.5611169,"lng":126.8343465,"source":"google","mapUrl":"https://goo.gl/maps/ocBPpcP9xQi6pNey8"},{"name":"산청숯불가든 마곡","roadAddress":"서울 강서구 마곡중앙8로 85 1층 102~108호","jibunAddress":"서울 강서구 마곡동 791-9","phone":"02-2659-8188","category":"육류,고기요리","lat":"37.561118406167175","lng":"126.83698411396983","debug_container_text":"도로명서울 강서구 마곡중앙8로 85 1층 102~108호복사\n지번서울 강서구 마곡동 791-9복사\n우편번호\n우편번호\n07794복사\n안내 레이어 닫기","source":"naver","mapUrl":"https://naver.me/G2VmnbK7","placeId":"1774474024"}],"hasPlaceInfo":true,"collectedAt":"2026-01-08T00:15:58.711Z","failedUrls":[]}
{"videoId":"6lPhcQ3_NtY","places":[{"name":"백탄참숯불구이","roadAddress":"전북특별자치도 전주시 특별자치도 완산구 삼천천변2길 43","phone":"063-236-1161","category":"음식점","lat":35.7990433,"lng":127.1123628,"source":"google","mapUrl":"https://goo.gl/maps/ydjSsNcowajxovjw7"},{"name":"백탄참숯불구이","roadAddress":"전북 전주시 완산구 삼천천변2길 43 백탄참숯불구이 1층","jibunAddress":"전북 전주시 완산구 삼천동1가 287-24","phone":"0507-1419-1161","category":"한식","lat":"35.7974577228472","lng":"127.114578785764","debug_container_text":"도로명전북 전주시 완산구 삼천천변2길 43 백탄참숯불구이 1층복사\n지번전북 전주시 완산구 삼천동1가 287-24복사\n우편번호\n우편번호\n55086복사\n안내 레이어 닫기","source":"naver","mapUrl":"https://naver.me/FVb24mO6","placeId":"1863546576"}],"hasPlaceInfo":true,"collectedAt":"2026-01-08T00:16:19.790Z","failedUrls":[]}
{"videoId":"Fspv7UbmOeE","places":[{"name":"카츠바이콘반","roadAddress":"서울특별시 강남구 선릉로153길 36","phone":"02-547-3903","category":"돈까스 전문식당","lat":37.5247929,"lng":127.0338775,"source":"google","mapUrl":"https://goo.gl/maps/MCDBKhnLBkCfXjJz9"},{"name":"카츠바이콘반","roadAddress":"서울 강남구 선릉로153길 36 1층","jibunAddress":"서울 강남구 신사동 647-22","phone":"0507-1332-3903","category":"일식당","lat":"37.52479790585425","lng":"127.03646084537056","debug_container_text":"도로명서울 강남구 선릉로153길 36 1층복사\n지번서울 강남구 신사동 647-22복사\n우편번호\n우편번호\n06020복사\n안내 레이어 닫기","source":"naver","mapUrl":"https://naver.me/Ge5PDpdG","placeId":"1573951163"}],"hasPlaceInfo":true,"collectedAt":"2026-01-08T00:16:17.621Z","failedUrls":[]}
{"videoId":"T_ax0wH7J5o","places":[{"name":"온담 전주본점","roadAddress":"전북특별자치도 전주시 완산구 전주천동로 210 KR 1층","phone":"050-71372-4958","category":"한식 고기구이 레스토랑","lat":35.8150987,"lng":127.1373014,"source":"google","mapUrl":"https://goo.gl/maps/K8H7PTRSbC6vsiS77"},{"name":"온담 전주본점","roadAddress":"전북 전주시 완산구 전주천동로 210 1층","jibunAddress":"전북 전주시 완산구 다가동2가 181","phone":"0507-1311-4958","category":"육류,고기요리","lat":"35.815156970506","lng":"127.139881475757","debug_container_text":"도로명전북 전주시 완산구 전주천동로 210 1층복사\n지번전북 전주시 완산구 다가동2가 181복사\n우편번호\n우편번호\n55038복사\n안내 레이어 닫기","source":"naver","mapUrl":"https://naver.me/Ge5P9eAp","placeId":"1972076667"}],"hasPlaceInfo":true,"collectedAt":"2026-01-08T00:16:42.463Z","failedUrls":[]}
{"videoId":"41DtaVvQNJY","places":[{"name":"야키토리 나루토 상수 본점","roadAddress":"서울특별시 마포구 독막로9길 26","phone":"050-71369-6835","category":"꼬치구이 전문식당","lat":37.5493583,"lng":126.917609,"source":"google","mapUrl":"https://goo.gl/maps/7HZA7niDJ9JFbmFQA"},{"name":"야키토리 나루토 상수 본점","roadAddress":"서울 마포구 독막로9길 26 반지층 야키토리나루토","jibunAddress":"서울 마포구 서교동 403-23","phone":"0507-1369-6835","category":"이자카야","lat":"37.5493540644272","lng":"126.920207967712","debug_container_text":"도로명서울 마포구 독막로9길 26 반지층 야키토리나루토복사\n지번서울 마포구 서교동 403-23복사\n우편번호\n우편번호\n04048복사\n안내 레이어 닫기","source":"naver","mapUrl":"https://naver.me/54VkVsKT","placeId":"1294694156"}],"hasPlaceInfo":true,"collectedAt":"2026-01-08T00:16:40.293Z","failedUrls":[]}
{"videoId":"xCmMymrSUnA","places":[{"name":"육도","roadAddress":"서울특별시 마포구 용강동 494-40번지 1층","phone":"02-703-3465","category":"음식점","lat":37.5430578,"lng":126.9367981,"source":"google","mapUrl":"https://goo.gl/maps/SYKaihdets7aJiL38"},{"name":"육도","roadAddress":"서울 마포구 토정로 261 1층","jibunAddress":"서울 마포구 용강동 494-40","phone":"0507-1310-3465","category":"육류,고기요리","lat":"37.5430873126868","lng":"126.93939888645","debug_container_text":"도로명서울 마포구 토정로 261 1층복사\n지번서울 마포구 용강동 494-40복사\n우편번호\n우편번호\n04159복사\n안내 레이어 닫기","source":"naver","mapUrl":"https://naver.me/FoRb4MzR","placeId":"1393712079"}],"hasPlaceInfo":true,"collectedAt":"2026-01-08T00:17:02.739Z","failedUrls":[]}
{"videoId":"QY34BHlTsYE","places":[{"name":"부일갈매기","roadAddress":"서울특별시 송파구 삼전로13길 4","phone":"02-412-1462","category":"한식 고기구이 레스토랑","lat":37.5072893,"lng":127.0872816,"source":"google","mapUrl":"https://goo.gl/maps/m9wLZz7ivBh767Sh9"},{"name":"부일갈매기","roadAddress":"서울 송파구 삼전로13길 4","jibunAddress":"서울 송파구 잠실동 242-22","phone":"02-412-1462","category":"돼지고기구이","lat":"37.5072916470656","lng":"127.089910459413","debug_container_text":"도로명서울 송파구 삼전로13길 4복사\n지번서울 송파구 잠실동 242-22복사\n우편번호\n우편번호\n05566복사\n안내 레이어 닫기","source":"naver","mapUrl":"https://naver.me/FVbpU21g","placeId":"18570242"}],"hasPlaceInfo":true,"collectedAt":"2026-01-08T00:17:00.596Z","failedUrls":[]}
{"videoId":"EDIHL0f6roQ","places":[{"name":"직화장인","roadAddress":"서울특별시 중구 난계로11길 5","phone":"010-9172-7174","category":"숯불구이/바베큐전문점","lat":37.5656864,"lng":127.020566,"source":"google","mapUrl":"https://goo.gl/maps/g91tRfEyypk4b52QA"},{"name":"직화장인 신당본점","roadAddress":"서울 중구 난계로11길 5 1층","jibunAddress":"서울 중구 황학동 2492","phone":"0507-1358-2416","category":"육류,고기요리","lat":"37.5657201408689","lng":"127.023160712225","debug_container_text":"도로명서울 중구 난계로11길 5 1층복사\n지번서울 중구 황학동 2492복사\n우편번호\n우편번호\n04575복사\n안내 레이어 닫기","source":"naver","mapUrl":"https://naver.me/FlzchgIC","placeId":"1657246999"}],"hasPlaceInfo":true,"collectedAt":"2026-01-08T00:17:22.316Z","failedUrls":[]}
{"videoId":"-4sTdj9j0hg","places":[{"name":"꿉당 잠실방이점","roadAddress":"서울특별시 송파구 방이동 68-8","phone":"02-417-3400","category":"숯불구이/바베큐전문점","lat":37.5126983,"lng":127.1068617,"source":"google","mapUrl":"https://goo.gl/maps/dazDBVDr5YHPZpPE9"},{"name":"꿉당 잠실방이점","roadAddress":"서울 송파구 오금로15길 9 1층","jibunAddress":"서울 송파구 방이동 68-8","phone":"02-417-3400","category":"돼지고기구이","lat":"37.512706429733015","lng":"127.10943047529915","debug_container_text":"도로명서울 송파구 오금로15길 9 1층복사\n지번서울 송파구 방이동 68-8복사\n우편번호\n우편번호\n05548복사\n안내 레이어 닫기","source":"naver","mapUrl":"https://naver.me/xGiPxFgm","placeId":"1291730205"}],"hasPlaceInfo":true,"collectedAt":"2026-01-08T00:17:20.147Z","failedUrls":[]}
{"videoId":"Kdlpk_By76k","places":[{"name":"땡구땡구","roadAddress":"대전광역시 서구 관저동로93번길 21","phone":null,"category":"술집","lat":36.3002695,"lng":127.3363303,"source":"google","mapUrl":"https://goo.gl/maps/XQqBUyRaC6XtKikX6"},{"name":"땡구땡구 대전관저점","roadAddress":"대전 서구 관저동로93번길 21","jibunAddress":"대전 서구 관저동 1300","phone":"042-544-8592","category":"돼지고기구이","lat":"36.3002226477358","lng":"127.338932397633","debug_container_text":"도로명대전 서구 관저동로93번길 21복사\n지번대전 서구 관저동 1300복사\n우편번호\n우편번호\n35378복사\n안내 레이어 닫기","source":"naver","mapUrl":"https://naver.me/5Af5WCn0","placeId":"36240334"}],"hasPlaceInfo":true,"collectedAt":"2026-01-08T00:17:38.755Z","failedUrls":[]}
{"videoId":"XLJUELiUBEg","places":[{"name":"태능돌삼겹","roadAddress":"대전광역시","phone":"042-487-9880","category":"음식점","lat":36.3557578,"lng":127.3572129,"source":"google","mapUrl":"https://goo.gl/maps/8EzuRyYZM5Jg1Hz87"},{"name":"태능돌삼겹","roadAddress":"대전 서구 월평로 22","jibunAddress":"대전 서구 월평동 1022","phone":"042-487-9880","category":"돼지고기구이","lat":"36.3557716169145","lng":"127.359801984106","debug_container_text":"도로명대전 서구 월평로 22복사\n지번대전 서구 월평동 1022복사\n우편번호\n우편번호\n35225복사\n안내 레이어 닫기","source":"naver","mapUrl":"https://naver.me/x4iJfQxf","placeId":"16215338"}],"hasPlaceInfo":true,"collectedAt":"2026-01-08T00:18:00.505Z","failedUrls":[]}
{"videoId":"Msb56BAXXTY","places":[{"name":"월화고기 보라매점","roadAddress":"서울특별시 관악구 보라매로3길 16","phone":"02-888-7592","category":"고기 요리 전문점","lat":37.4915891,"lng":126.9237092,"source":"google","mapUrl":"https://goo.gl/maps/Cv9QP7b3Xmq8bRaC8"},