{"videoId":"Ox7K96kZhTc","places":[{"name":"Ingle Korean Steakhouse","roadAddress":"1926 14th St NW, Washington, DC 20009 미국","phone":"+1 202-977-7404","category":"한식당","lat":38.916444,"lng":-77.0349689,"source":"google","mapUrl":"https://maps.app.goo.gl/Yq4JKaV4kocMXEf66"},{"name":"Ingle Korean Steakhouse","roadAddress":"8369 Leesburg Pike Suite A, Vienna, VA 22182 미국","phone":"+1 202-845-4966","category":"한식 고기구이 레스토랑","lat":38.9213893,"lng":-77.2360955,"source":"google","mapUrl":"https://maps.app.goo.gl/7cUN9J7nDXMQavb77"}],"hasPlaceInfo":true,"collectedAt":"2026-01-07T23:00:09.139Z","failedUrls":[]}
{"videoId":"6Su6xRK8994","places":[{"name":"탉","roadAddress":"서울 강남구 언주로168길 24 1층 102호","jibunAddress":"서울 강남구 신사동 645-18","phone":"02-461-1025","category":"한식","lat":"37.5260055211346","lng":"127.0355677151","source":"naver","mapUrl":"https://naver.me/FjCGuHHm","placeId":"2057342168"}],"hasPlaceInfo":true,"collectedAt":"2026-01-07T22:59:54.029Z","failedUrls":[]}
{"videoId":"nxJt8jHg5kI","places":[{"name":"NUBIANI - Koreatown","roadAddress":"315 5th Ave #3FL, New York, NY 10016 미국","phone":"+1 917-623-0807","category":"한식 고기구이 레스토랑","lat":40.7433904,"lng":-73.9856558,"source":"google","mapUrl":"https://maps.app.goo.gl/hyKRKp35PJfdPYtA9"},{"name":"Kiwa Korean Grill","roadAddress":"21438 Epicerie Plaza, Sterling, VA 20164 미국","phone":"+1 571-375-7121","category":"한식 고기구이 레스토랑","lat":39.0237313,"lng":-77.3943896,"source":"google","mapUrl":"https://maps.app.goo.gl/CUWMQnGeGZe9Qspn8"}],"hasPlaceInfo":true,"collectedAt":"2026-01-07T23:02:46.497Z","failedUrls":[{"type":"google","url":"https://maps.app.goo.gl/PkNrU6tQGsJEKUkU8"}]}
{"videoId":"uYH2dw8hdms","places":[{"name":"오코메","roadAddress":"부산 수영구 남천바다로 34-8 1층","jibunAddress":"부산 수영구 남천동 3-26","phone":"0507-1486-2151","category":"일식당","lat":35.1483154,"lng":129.1137813,"source":"naver","mapUrl":"https://naver.me/Ig4ui3N1","placeId":"2008174562"},{"name":"동경밥상 본점","roadAddress":"부산 수영구 남천바다로 34-6 1층","jibunAddress":"부산 수영구 남천동 3-25","phone":"0507-1320-1428","category":"덮밥","lat":"35.1483802319894","lng":"129.113870147224","source":"naver","mapUrl":"https://naver.me/GbDqySii","placeId":"1520243018"}],"hasPlaceInfo":true,"collectedAt":"2026-01-07T23:00:19.462Z","failedUrls":[]}
{"videoId":"x0Inhsf9e90","places":[{"name":"부일숯불갈비","roadAddress":"서울 영등포구 영중로6길 23-8","jibunAddress":"서울 영등포구 영등포동3가 23-11","phone":"02-2636-9462","category":"육류,고기요리","lat":"37.51814582607549","lng":"126.90863540904311","source":"naver","mapUrl":"https://naver.me/xprEUczZ","placeId":"18560835"}],"hasPlaceInfo":true,"collectedAt":"2026-01-07T23:02:51.570Z","failedUrls":[]}
{"videoId":"tc-ap1wcxZg","places":[{"name":"Yakiniku Sanzenri Honten","roadAddress":"일본 〒130-0013 Tokyo, Sumida City, Kinshi, 4 Chome−14−9 チグサビル １Ｆ","phone":"+81 50-5448-3726","category":"야키니쿠 전문식당","lat":35.6965458,"lng":139.8144908,"source":"google","mapUrl":"https://maps.app.goo.gl/jFSfYyjgVVFN4Jus6"}],"hasPlaceInfo":true,"collectedAt":"2026-01-07T23:03:46.242Z","failedUrls":[]}
{"videoId":"f4FPQ2lBLno","places":[{"name":"요로니쿠","roadAddress":"일본 〒107-0062 Tokyo, Minato City, Minamiaoyama, 6 Chome−6−22 LunaRossa南青山 B1","phone":"+81 3-3498-4629","category":"야키니쿠 전문식당","lat":35.6602462,"lng":139.7175653,"source":"google","mapUrl":"https://maps.app.goo.gl/sPv1US8JLm4XLHQD6"}],"hasPlaceInfo":true,"collectedAt":"2026-01-07T23:03:57.349Z","failedUrls":[]}
{"videoId":"srYHakm1hzE","places":[{"name":"스타미나엔","roadAddress":"3 Chome-13-4 Shikahama, Adachi City, Tokyo 123-0864 일본","phone":"+81 3-3897-0416","category":"야키니쿠 전문식당","lat":35.7799307,"lng":139.7498251,"source":"google","mapUrl":"https://maps.app.goo.gl/U95hVU2XZzrFJp517"}],"hasPlaceInfo":true,"collectedAt":"2026-01-07T23:06:51.727Z","failedUrls":[{"type":"google","url":"https://maps.app.goo.gl/ShyjPX9brZZiAziB8"}]}
{"videoId":"2CK_2dXGg3o","places":[],"hasPlaceInfo":false,"collectedAt":"2026-01-07T23:06:55.598Z","failedUrls":[{"type":"naver","url":"https://naver.me/GBvZQQoH"}]}
{"videoId":"qDG3auuSb1E","places":[{"name":"사나이식당 부천상동본점","roadAddress":"경기 부천시 원미구 길주로77번길 19-6 중앙프라자 103호, 104호","jibunAddress":"경기 부천시 원미구 상동 532-17","phone":"0507-1356-9578","category":"육류,고기요리","lat":"37.506880198511","lng":"126.750846561287","source":"naver","mapUrl":"https://naver.me/Fzs8WVJ4","placeId":"34718884"}],"hasPlaceInfo":true,"collectedAt":"2026-01-07T23:06:56.432Z","failedUrls":[]}
{"videoId":"ADzm3H2lVmY","places":[{"name":"골목집숯불갈비","roadAddress":"서울 도봉구 노해로63길 51 상아프라자","jibunAddress":"서울 도봉구 창동 320-1","phone":"02-995-2025","category":"육류,고기요리","lat":"37.6526297203407","lng":"127.044621150632","source":"naver","mapUrl":"https://naver.me/5apQn5PW","placeId":"20831745"}],"hasPlaceInfo":true,"collectedAt":"2026-01-07T23:07:00.895Z","failedUrls":[]}
{"videoId":"ujUlPila56o","places":[],"hasPlaceInfo":false,"collectedAt":"2026-01-07T23:07:03.334Z","failedUrls":[{"type":"naver","url":"https://naver.me/xcAmPkgA"},{"type":"naver","url":"https://naver.me/5NM3hNNs"}]}
{"videoId":"6bZ-rl52dko","places":[{"name":"일미집 미아사거리 본점","roadAddress":"서울 강북구 숭인로 65-3","jibunAddress":"서울 강북구 미아동 465-46","phone":"02-987-3055","category":"육류,고기요리","lat":"37.61268308933343","lng":"127.02897191771599","source":"naver","mapUrl":"https://naver.me/57V6gPmx","placeId":"20290117"}],"hasPlaceInfo":true,"collectedAt":"2026-01-07T23:07:08.258Z","failedUrls":[]}
{"videoId":"lU7d9LNJrBY","places":[{"name":"제주목장","roadAddress":"서울 금천구 가산로 85","jibunAddress":"서울 금천구 독산동 297-1","phone":"02-837-3037","category":"한식","lat":"37.47361897604203","lng":"126.89455614919538","source":"naver","mapUrl":"https://naver.me/FvEjIK39","placeId":"1198264655"}],"hasPlaceInfo":true,"collectedAt":"2026-01-07T23:07:08.594Z","failedUrls":[]}
{"videoId":"ulGBU1BpKjM","places":[{"name":"민들레화로","roadAddress":"경기 오산시 외삼미로 7 민들레화로","jibunAddress":"경기 오산시 외삼미동 426-4","phone":"0507-1424-3398","category":"돼지고기구이","lat":"37.1903860521973","lng":"127.052871262268","source":"naver","mapUrl":"https://naver.me/xY4FVzVZ","placeId":"37801052"}],"hasPlaceInfo":true,"collectedAt":"2026-01-07T23:07:13.024Z","failedUrls":[]}
{"videoId":"vLXGyLgKcZw","places":[{"name":"뽈구이복 본점","roadAddress":"경기 포천시 소흘읍 태봉로166번길 19-13","jibunAddress":"경기 포천시 소흘읍 송우리 726-45","phone":"031-544-5085","category":"돼지고기구이","lat":"37.830696565882","lng":"127.141345348678","source":"naver","mapUrl":"https://naver.me/x5GnA37N","placeId":"38284711"}],"hasPlaceInfo":true,"collectedAt":"2026-01-07T23:07:13.366Z","failedUrls":[]}
{"videoId":"nKYYseLDpu8","places":[{"name":"양주골화로구이","roadAddress":"경기 남양주시 진건읍 사릉로441번길 36-9 양주골화로구이","jibunAddress":null,"phone":"010-4102-1918","category":"육류,고기요리","lat":"37.6588729175017","lng":"127.172533785182","source":"naver","mapUrl":"https://naver.me/F3eqeTRZ","placeId":"17867835"}],"hasPlaceInfo":true,"collectedAt":"2026-01-07T23:07:18.768Z","failedUrls":[]}
{"videoId":"7H-pX6St3p0","places":[],"hasPlaceInfo":false,"collectedAt":"2026-01-07T23:07:17.249Z","failedUrls":[{"type":"naver","url":"https://naver.me/GOhDo5gi"}]}
{"videoId":"KL3FaNflHQI","places":[{"name":"한우마을","roadAddress":"서울 동대문구 한천로17길 21","jibunAddress":null,"phone":"010-3940-9462","category":"소고기구이","lat":"37.5698204941299","lng":"127.062918362845","source":"naver","mapUrl":"https://naver.me/xAFwWzxu","placeId":"20942434"}],"hasPlaceInfo":true,"collectedAt":"2026-01-07T23:07:24.023Z","failedUrls":[]}
{"videoId":"33YF_oR5rHQ","places":[{"name":"육일돈 분당수내본점","roadAddress":"경기 성남시 분당구 발이봉로3번길 8-1 1층","jibunAddress":"경기 성남시 분당구 수내동 89-6","phone":"0507-1416-3045","category":"육류,고기요리","lat":"37.3663780850212","lng":"127.127349789749","source":"naver","mapUrl":"https://naver.me/FJimSEFV","placeId":"1915201544"}],"hasPlaceInfo":true,"collectedAt":"2026-01-07T23:07:24.066Z","failedUrls":[]}
{"videoId":"ixd9z6NKk0g","places":[{"name":"골목흑돼지","roadAddress":"서울 종로구 종로 377-3 서림빌딩","jibunAddress":"서울 종로구 숭인동 177-2","phone":"02-741-6625","category":"돼지고기구이","lat":"37.5744631973157","lng":"127.019276058615","source":"naver","mapUrl":"https://naver.me/xxY2Hzrg","placeId":"37233589"}],"hasPlaceInfo":true,"collectedAt":"2026-01-07T23:07:28.855Z","failedUrls":[]}
{"videoId":"GYUpqnI6J4w","places":[{"name":"노란돼지","roadAddress":"서울 동작구 동작대로7길 97 1층","jibunAddress":"서울 동작구 사당동 1045-7","phone":"0507-1409-8421","category":"육류,고기요리","lat":"37.4771139187372","lng":"126.977873981531","source":"naver","mapUrl":"https://naver.me/xa5Woh01","placeId":"1237548287"}],"hasPlaceInfo":true,"collectedAt":"2026-01-07T23:07:28.642Z","failedUrls":[]}
{"videoId":"GJtYUqNskcA","places":[{"name":"청수장","roadAddress":"서울 성북구 정릉로 237-2","jibunAddress":"서울 성북구 정릉동 416-27","phone":"0507-1323-6176","category":"한식","lat":"37.6053178643889","lng":"127.010749582839","source":"naver","mapUrl":"https://naver.me/GubJUrnE","placeId":"31531465"}],"hasPlaceInfo":true,"collectedAt":"2026-01-07T23:07:33.879Z","failedUrls":[]}
{"videoId":"nGJRJMZlz2k","places":[{"name":"황주생고기","roadAddress":"경기 동두천시 생연로 142","jibunAddress":"경기 동두천시 생연동 823-19","phone":"031-865-2026","category":"소고기구이","lat":"37.9050658236809","lng":"127.051977603705","source":"naver","mapUrl":"https://naver.me/5bVwe6wK","placeId":"13391481"}],"hasPlaceInfo":true,"collectedAt":"2026-01-07T23:07:33.222Z","failedUrls":[]}
{"videoId":"dtpOfukqyfw","places":[{"name":"광시","roadAddress":"서울 서초구 효령로60길 15 1층","jibunAddress":"서울 서초구 서초동 1444-2","phone":"02-522-9263","category":"소고기구이","lat":"37.4846523389385","lng":"127.018783734857","source":"naver","mapUrl":"https://naver.me/xIeSN4TN","placeId":"20724798"}],"hasPlaceInfo":true,"collectedAt":"2026-01-07T23:07:38.498Z","failedUrls":[]}
{"videoId":"AR_2_JLNV0g","places":[{"name":"강물나라연탄삼겹살","roadAddress":"경기 파주시 탄현면 소금쟁이길 57","jibunAddress":"경기 파주시 탄현면 법흥리 1593-8","phone":"031-945-1588","category":"육류,고기요리","lat":"37.7694278880212","lng":"126.70246694193202","source":"naver","mapUrl":"https://naver.me/xmxR9g6n","placeId":"19185406"}],"hasPlaceInfo":true,"collectedAt":"2026-01-07T23:07:38.651Z","failedUrls":[]}
{"videoId":"ZkZUsIwGzyM","places":[{"name":"동원소금구이","roadAddress":"경기 김포시 북변로 8-27","jibunAddress":"경기 김포시 북변동 284-9","phone":"031-986-8843","category":"육류,고기요리","lat":"37.6275496268969","lng":"126.710681102305","source":"naver","mapUrl":"https://naver.me/GJTnHR9l","placeId":"18572624"}],"hasPlaceInfo":true,"collectedAt":"2026-01-07T23:07:43.049Z","failedUrls":[]}
{"videoId":"g8xG-DzTiAA","places":[],"hasPlaceInfo":false,"collectedAt":"2026-01-07T23:07:42.737Z","failedUrls":[{"type":"naver","url":"https://naver.me/52cglf3A"}]}
{"videoId":"S5GCl4o2p10","places":[{"name":"만복래연탄구이","roadAddress":"경기 남양주시 화도읍 마석로 98-4 1층","jibunAddress":"경기 남양주시 화도읍 마석우리 417","phone":"031-511-2850","category":"한식","lat":"37.6593182591643","lng":"127.305040940681","source":"naver","mapUrl":"https://naver.me/FA2FUJny","placeId":"38552424"}],"hasPlaceInfo":true,"collectedAt":"2026-01-07T23:07:48.136Z","failedUrls":[]}
{"videoId":"MasEPFrtMDk","places":[{"name":"동경밥상 본점","roadAddress":"부산 수영구 남천바다로 34-6 1층","jibunAddress":"부산 수영구 남천동 3-25","phone":"0507-1320-1428","category":"덮밥","lat":"35.1483802319894","lng":"129.113870147224","source":"naver","mapUrl":"https://naver.me/GbDqySii","placeId":"1520243018"}],"hasPlaceInfo":true,"collectedAt":"2026-01-07T23:07:48.053Z","failedUrls":[]}
{"videoId":"nw55p-dEw9E","places":[{"name":"비쇼쿠 광안점","roadAddress":"부산 수영구 광안해변로344번길 9-5 1층","jibunAddress":"부산 수영구 민락동 110-40","phone":"0507-1387-8895","category":"육류,고기요리","lat":"35.15545453874157","lng":"129.1309268063325","source":"naver","mapUrl":"https://naver.me/xWTn8HiD","placeId":"1951802432"}],"hasPlaceInfo":true,"collectedAt":"2026-01-07T23:07:52.570Z","failedUrls":[]}
{"videoId":"80XRc5B_DmI","places":[{"name":"칠흑 가양등촌점","roadAddress":"서울 강서구 화곡로66길 20 102동 1층 103호","jibunAddress":"서울 강서구 등촌동 640-2","phone":"0507-1491-7706","category":"곰탕,설렁탕","lat":"37.5577358736437","lng":"126.854782862525","source":"naver","mapUrl":"https://naver.me/xa5tc8i8","placeId":"1963188795"}],"hasPlaceInfo":true,"collectedAt":"2026-01-07T23:07:53.642Z","failedUrls":[]}
{"videoId":"wFbGVi8NEPo","places":[{"name":"태원정육식당","roadAddress":"경기 안양시 만안구 박달로507번길 19","jibunAddress":"경기 안양시 만안구 박달동 79-4","phone":"0507-1344-9236","category":"정육식당","lat":"37.4035047475812","lng":"126.908713795692","source":"naver","mapUrl":"https://naver.me/Gub1BAcs","placeId":"37633880"}],"hasPlaceInfo":true,"collectedAt":"2026-01-07T23:07:58.556Z","failedUrls":[]}
{"videoId":"MZ5rmxuuBk4","places":[{"name":"함평천지생고기전문","roadAddress":"서울 관악구 난곡로63가길 1","jibunAddress":"서울 관악구 미성동 1475-30","phone":"02-837-3930","category":"육류,고기요리","lat":"37.4810033404196","lng":"126.914218377691","source":"naver","mapUrl":"https://naver.me/GtUDyTTX","placeId":"19985310"}],"hasPlaceInfo":true,"collectedAt":"2026-01-07T23:07:58.582Z","failedUrls":[]}
{"videoId":"4UqAmTjhBKs","places":[{"name":"판교화로","roadAddress":"경기 성남시 분당구 운중로125번길 4-5 1층","jibunAddress":"경기 성남시 분당구 운중동 976-4","phone":"0507-1400-0764","category":"돼지고기구이","lat":"37.3922923194305","lng":"127.077568843788","source":"naver","mapUrl":"https://naver.me/xY4sdEBz","placeId":"1443449620"}],"hasPlaceInfo":true,"collectedAt":"2026-01-07T23:08:03.503Z","failedUrls":[]}
{"videoId":"JTPsh5sSkck","places":[{"name":"마초스테이크 본점","roadAddress":"서울 강남구 논현로159길 10 지상1층 102호","jibunAddress":"서울 강남구 신사동 567-23","phone":"0507-1388-1340","category":"스테이크,립","lat":"37.5231163961185","lng":"127.027338798658","source":"naver","mapUrl":"https://naver.me/xDJguOUk","placeId":"1981347065"}],"hasPlaceInfo":true,"collectedAt":"2026-01-07T23:08:03.300Z","failedUrls":[]}
{"videoId":"0EteL9ItdOc","places":[{"name":"풍류각","roadAddress":"서울 마포구 월드컵로 33 1층","jibunAddress":"서울 마포구 합정동 426-5","phone":"0507-1425-9279","category":"육류,고기요리","lat":"37.55234039831552","lng":"126.91193442063597","source":"naver","mapUrl":"https://naver.me/5MVOe96s","placeId":"1655037566"}],"hasPlaceInfo":true,"collectedAt":"2026-01-07T23:08:07.890Z","failedUrls":[]}
{"videoId":"wY-RR2QF9dE","places":[],"hasPlaceInfo":false,"collectedAt":"2026-01-07T23:08:06.875Z","failedUrls":[{"type":"naver","url":"https://naver.me/G4Gl2YHE"}]}
{"videoId":"kKcTAlq6zOk","places":[{"name":"태백산생고기","roadAddress":"서울 은평구 연서로 205 1층 태백산생고기","jibunAddress":"서울 은평구 갈현동 460-17","phone":"0507-1460-0413","category":"소고기구이","lat":"37.6170186191238","lng":"126.91883881388843","source":"naver","mapUrl":"https://naver.me/502MCL6U","placeId":"694411058"}],"hasPlaceInfo":true,"collectedAt":"2026-01-07T23:08:13.083Z","failedUrls":[]}
{"videoId":"-yibFbw8PPU","places":[{"name":"사루카메","roadAddress":"서울 마포구 연남로 15 1층","jibunAddress":"서울 마포구 연남동 566-67","phone":null,"category":"일본식라면","lat":"37.5610362571878","lng":"126.922705882899","source":"naver","mapUrl":"https://naver.me/F1ry1mqe","placeId":"1763607050"}],"hasPlaceInfo":true,"collectedAt":"2026-01-07T23:08:12.965Z","failedUrls":[]}
{"videoId":"3fLce25b7DI","places":[{"name":"식신통삼겹구이","roadAddress":"울산 남구 화합로194번길 31 1층","jibunAddress":"울산 남구 삼산동 1557-6","phone":"0507-1352-1556","category":"돼지고기구이","lat":"35.5419182160405","lng":"129.343068035056","source":"naver","mapUrl":"https://naver.me/GTnhHiAI","placeId":"1285818031"}],"hasPlaceInfo":true,"collectedAt":"2026-01-07T23:08:17.523Z","failedUrls":[]}
{"videoId":"UveQC4enN1A","places":[{"name":"함양집","roadAddress":"울산 남구 삼산로228번길 19","jibunAddress":"울산 남구 달동 1263-13","phone":"052-260-9060","category":"비빔밥","lat":"35.5364901727523","lng":"129.332852001247","source":"naver","mapUrl":"https://naver.me/FdCkqndS","placeId":"16406047"}],"hasPlaceInfo":true,"collectedAt":"2026-01-07T23:08:17.702Z","failedUrls":[]}
{"videoId":"GNAcSjUrSBc","places":[{"name":"혼돈","roadAddress":"서울 강남구 언주로115길 15 101호","jibunAddress":"서울 강남구 논현동 230-1","phone":"0507-1336-8984","category":"돈가스","lat":"37.5098793983616","lng":"127.035451481594","source":"naver","mapUrl":"https://naver.me/FIfwEyGI","placeId":"1659963886"}],"hasPlaceInfo":true,"collectedAt":"2026-01-07T23:08:22.191Z","failedUrls":[]}
{"videoId":"ZvDg-mE5Ztk","places":[{"name":"야끼니꾸 만게츠 울산 삼산점","roadAddress":"울산 남구 달삼로 53 1층","jibunAddress":"울산 남구 달동 1261-8","phone":"0507-1323-9596","category":"육류,고기요리","lat":"35.5364197895131","lng":"129.334904794002","source":"naver","mapUrl":"https://naver.me/xHgdBLdc","placeId":"1338401788"}],"hasPlaceInfo":true,"collectedAt":"2026-01-07T23:08:22.781Z","failedUrls":[]}
{"videoId":"1IUF2ZOZQNE","places":[{"name":"몯갈비&숯불불고기","roadAddress":"인천 서구 신석로 64","jibunAddress":"인천 서구 석남동 524-11","phone":"0507-1368-5405","category":"육류,고기요리","lat":"37.5097893956786","lng":"126.668975604202","source":"naver","mapUrl":"https://naver.me/Fio7F5Wn","placeId":"1272786929"}],"hasPlaceInfo":true,"collectedAt":"2026-01-07T23:08:27.959Z","failedUrls":[]}
{"videoId":"SPCxM_fnZPw","places":[{"name":"공간 수련","roadAddress":"서울 성동구 광나루로11길 3 2층","jibunAddress":"서울 성동구 송정동 66-102","phone":"0507-1419-5915","category":"육류,고기요리","lat":"37.5485277265054","lng":"127.065328936316","source":"naver","mapUrl":"https://naver.me/GtUwvFFd","placeId":"1116931457"}],"hasPlaceInfo":true,"collectedAt":"2026-01-07T23:08:27.407Z","failedUrls":[]}
{"videoId":"lctP2NRzDzs","places":[{"name":"마포소금구이 중동점","roadAddress":"경기 부천시 원미구 부흥로 205","jibunAddress":"경기 부천시 원미구 중동 597-5","phone":"032-662-6900","category":"육류,고기요리","lat":"37.496157972039654","lng":"126.76567917166615","source":"naver","mapUrl":"https://naver.me/GZZuyoAV","placeId":"31794036"}],"hasPlaceInfo":true,"collectedAt":"2026-01-07T23:08:33.027Z","failedUrls":[]}
{"videoId":"hDA7lSTX6Pg","places":[{"name":"한옥집 숯불갈비 서울본점","roadAddress":"서울 금천구 시흥대로141길 71 1층","jibunAddress":"서울 금천구 독산동 144-10","phone":"0507-1335-8592","category":"육류,고기요리","lat":"37.47606435528151","lng":"126.89767525117989","source":"naver","mapUrl":"https://naver.me/FN7pL4ch","placeId":"1044588978"}],"hasPlaceInfo":true,"collectedAt":"2026-01-07T23:08:32.986Z","failedUrls":[]}
{"videoId":"IrLxwOzS--g","places":[{"name":"홍지로스 본점","roadAddress":"서울 종로구 삼일대로 428 낙원상가 1층 (낙원동 아구찜거리)","jibunAddress":"서울 종로구 낙원동 288 낙원상가 1층 ( 아구찜거리)","phone":"0507-1377-0115","category":"육류,고기요리","lat":37.5729668,"lng":126.9881975,"source":"naver","mapUrl":"https://naver.me/FSwoif0z","placeId":"1663507897"}],"hasPlaceInfo":true,"collectedAt":"2026-01-07T23:08:37.561Z","failedUrls":[]}
{"videoId":"_vjqNd5TdFg","places":[{"name":"백랑","roadAddress":"서울 용산구 한강대로15길 23 1층","jibunAddress":"서울 용산구 한강로3가 40-171","phone":"0507-1388-2840","category":"국밥","lat":"37.52607542255891","lng":"126.963202539848","source":"naver","mapUrl":"https://naver.me/FqWtRxt2","placeId":"1358453703"}],"hasPlaceInfo":true,"collectedAt":"2026-01-07T23:08:38.011Z","failedUrls":[]}
{"videoId":"3pK0ttGttFA","places":[{"name":"고기마당","roadAddress":"경기 수원시 팔달구 매산로 2-11","jibunAddress":"경기 수원시 팔달구 매산로1가 57-110","phone":"031-258-9290","category":"돼지고기구이","lat":"37.26670844381331","lng":"127.00247238406318","source":"naver","mapUrl":"https://naver.me/GWeDXcqM","placeId":"20984454"}],"hasPlaceInfo":true,"collectedAt":"2026-01-07T23:08:42.682Z","failedUrls":[]}
{"videoId":"H5YkExOunTQ","places":[{"name":"Yakiniku Kaneko","roadAddress":"일본 〒150-0033 Tokyo, Shibuya, Sarugakucho, 17−17 1F","phone":"+81 3-6415-4129","category":"야키니쿠 전문식당","lat":35.6497623,"lng":139.6964167,"source":"google","mapUrl":"https://maps.app.goo.gl/nhomueQiBtAH132d8"}],"hasPlaceInfo":true,"collectedAt":"2026-01-07T23:08:48.106Z","failedUrls":[]}
{"videoId":"FKsOdHgjdGU","places":[{"name":"스미비야키 유우지","roadAddress":"11-11-1 Udagawacho, Shibuya, Tokyo 150-0042 일본","phone":"+81 3-3464-6448","category":"야키니쿠 전문식당","lat":35.6625792,"lng":139.6973297,"source":"google","mapUrl":"https://maps.app.goo.gl/5q3CZyoidasjpAsc8"}],"hasPlaceInfo":true,"collectedAt":"2026-01-07T23:08:58.626Z","failedUrls":[]}
{"videoId":"RMk_vP0thwA","places":[{"name":"스시 아츠가","roadAddress":"일본 〒810-0004 Fukuoka, Chuo Ward, Watanabedori, 1 Chome−10−1 四十川ビル","phone":"+81 92-733-0122","category":"스시/초밥집","lat":33.5836034,"lng":130.4057843,"source":"google","mapUrl":"https://maps.app.goo.gl/qWwH2Q221e1cJXms9"},{"name":"마루타케 주방상사","roadAddress":"1 Chome-14-8 Haruyoshi, Chuo Ward, Fukuoka, 810-0003 일본","phone":"+81 92-718-0505","category":"주방용품점","lat":33.5841285,"lng":130.4038304,"source":"google","mapUrl":"https://maps.app.goo.gl/TJg1xJnDiFbNSfsR7"},{"name":"커피카운티 후쿠오카점","roadAddress":"1 Chome-21-21 Takasago, Chuo Ward, Fukuoka, 810-0011 일본","phone":"+81 92-753-8321","category":"커피숍/커피 전문점","lat":33.5802641,"lng":130.4030796,"source":"google","mapUrl":"https://maps.app.goo.gl/2LbR3q8SNw6URhzR8"},{"name":"야키토리 마코","roadAddress":"일본 〒810-0022 Fukuoka, Chuo Ward, Yakuin, 2 Chome−14−18 2F","phone":"+81 92-214-7053","category":"꼬치구이 전문식당","lat":33.5767071,"lng":130.3912841,"source":"google","mapUrl":"https://maps.app.goo.gl/G5hfy5nAvttBXgwT7"}],"hasPlaceInfo":true,"collectedAt":"2026-01-07T23:09:26.700Z","failedUrls":[]}
{"videoId":"r6L5r8V82_s","places":[],"hasPlaceInfo":false,"collectedAt":"2026-01-07T23:09:30.815Z","failedUrls":[{"type":"naver","url":"https://naver.me/5bVqe4Du"}]}
{"videoId":"SfU0EWaN7_A","places":[{"name":"멘야 이시이","roadAddress":"일본 〒812-0011 Fukuoka, Hakata Ward, Hakata Ekimae, 3 Chome−9−5 チサンマンション第一博多 1階","phone":null,"category":"우동 전문점","lat":33.5879858,"lng":130.4097559,"source":"google","mapUrl":"https://maps.app.goo.gl/FXuFyvCQmtaAdUsT9"},{"name":"로바타 산코바시","roadAddress":"3 Chome-22-17 Haruyoshi, Chuo Ward, Fukuoka, 810-0003 일본","phone":"+81 92-712-7373","category":"해산물 요리 전문식당","lat":33.588245,"lng":130.4030669,"source":"google","mapUrl":"https://maps.app.goo.gl/e74eaeZJgb68gzxdA"},{"name":"나노카와 모츠나베","roadAddress":"2 Chome-5-12 Nanokawa, Chuo Ward, Fukuoka, 810-0015 일본","phone":"+81 92-526-6078","category":"일식 내장 냄비 요리 전문점","lat":33.5780254,"lng":130.4050037,"source":"google","mapUrl":"https://maps.app.goo.gl/PsgG15FJsceC6Am57"}],"hasPlaceInfo":true,"collectedAt":"2026-01-07T23:11:11.172Z","failedUrls":[]}
{"videoId":"6WlS5PD91nw","places":[{"name":"水炊き 新三浦 博多本店","roadAddress":"21-12 Sekijomachi, Hakata Ward, Fukuoka, 812-0032 일본","phone":"+81 92-291-0821","category":"핫팟 레스토랑","lat":33.5964775,"lng":130.3967245,"source":"google","mapUrl":"https://maps.app.goo.gl/QLFhydVKrCXRBUUB9"},{"name":"하카타 겐키 잇빠이!!","roadAddress":"일본 〒812-0034 Fukuoka, Hakata Ward, Shimogofukumachi, ４−３１−1","phone":"+81 90-1362-4311","category":"일본라면 전문식당","lat":33.5964775,"lng":130.3967245,"source":"google","mapUrl":"https://maps.app.goo.gl/RLCG8CQqf4EZr7mDA"},{"name":"야키니쿠 스도 하루요시","roadAddress":"3 Chome-12-19 Haruyoshi, Chuo Ward, Fukuoka, 810-0003 일본","phone":"+81 50-3137-1010","category":"야키니쿠 전문식당","lat":33.5888538,"lng":130.4050506,"source":"google","mapUrl":"https://maps.app.goo.gl/kUZZDyPmDU3HhG3f7"}],"hasPlaceInfo":true,"collectedAt":"2026-01-07T23:11:51.815Z","failedUrls":[]}
{"videoId":"Qw-JJE90XyU","places":[{"name":"Yakinikufurusato Danbara Honten【Hiroshima Yakiniku/히로시마 야키니쿠/广岛烤肉/廣島烤肉】","roadAddress":"2 Chome-20-4 Danbara, Minami Ward, Hiroshima, 732-0811 일본","phone":"+81 82-236-3350","category":"야키니쿠 전문식당","lat":34.3861172,"lng":132.4747936,"source":"google","mapUrl":"https://maps.app.goo.gl/FNiSa9xeb9pyuKiL9"},{"name":"夕凪うなぎ","roadAddress":"1-17 Shintenchi, Naka Ward, Hiroshima, 730-0034 일본","phone":"+81 80-6030-5615","category":"민물장어 요리 전문식당","lat":34.3922716,"lng":132.4613293,"source":"google","mapUrl":"https://maps.app.goo.gl/9wRZ9LCGwabysxR4A"}],"hasPlaceInfo":true,"collectedAt":"2026-01-07T23:12:32.243Z","failedUrls":[]}
{"videoId":"Vgb0d8_W36k","places":[],"hasPlaceInfo":false,"collectedAt":"2026-01-07T23:12:36.450Z","failedUrls":[{"type":"naver","url":"https://naver.me/GOP1b1of"}]}
{"videoId":"6hmx8JjazN4","places":[{"name":"Yakiniku Furusato Saijo |Wagyu","roadAddress":"3 Chome-5-1 Saijochuo, Higashihiroshima, Hiroshima 739-0025 일본","phone":"+81 82-421-0088","category":"야키니쿠 전문식당","lat":34.4144746,"lng":132.7367747,"source":"google","mapUrl":"https://maps.app.goo.gl/Pos7pSRVLYbaCCZeA"},{"name":"ミートファクトリー あんずお肉の工場直売所 西条店","roadAddress":"1518-1 Saijocho Doyomaru, Higashihiroshima, Hiroshima 739-0003 일본","phone":"+81 82-490-3778","category":"정육점","lat":34.428303,"lng":132.7567826,"source":"google","mapUrl":"https://maps.app.goo.gl/JaVmvSmMoqC8qUw6A"},{"name":"とんかつ日刈り","roadAddress":"1518-1 Saijocho Doyomaru, Higashihiroshima, Hiroshima 739-0003 일본","phone":"+81 82-493-7298","category":"돈까스 전문식당","lat":34.428303,"lng":132.7567826,"source":"google","mapUrl":"https://maps.app.goo.gl/mpQk4JmHyMbcbDsx6"},{"name":"니쿠노마스이","roadAddress":"14-１３ Hatchobori, Naka Ward, Hiroshima, 730-0013 일본","phone":"+81 82-227-2983","category":"고기 요리 전문점","lat":34.3945389,"lng":132.4605744,"source":"google","mapUrl":"https://maps.app.goo.gl/ijDd59rYWSr1958d9"}],"hasPlaceInfo":true,"collectedAt":"2026-01-07T23:13:10.837Z","failedUrls":[]}
{"videoId":"NpJ-CwNhQbI","places":[],"hasPlaceInfo":false,"collectedAt":"2026-01-07T23:15:16.061Z","failedUrls":[{"type":"google","url":"https://maps.app.goo.gl/LpnibMCzpVA2zo7JA"}]}
{"videoId":"Skiha_ftNHI","places":[{"name":"양식당더램키친","roadAddress":"서울 강남구 압구정로8길 5 2층","jibunAddress":"서울 강남구 신사동 529-6","phone":"0507-1497-9284","category":"육류,고기요리","lat":"37.5229941884879","lng":"127.021375971317","source":"naver","mapUrl":"https://naver.me/Fwn7Y72z","placeId":"21029355"}],"hasPlaceInfo":true,"collectedAt":"2026-01-07T23:13:15.810Z","failedUrls":[]}
{"videoId":"8IBcmHesixg","places":[{"name":"브네","roadAddress":"서울 광진구 군자로 70 106호 VENEZ 브네","jibunAddress":"서울 광진구 군자동 362-1","phone":"0507-1307-5794","category":"와인","lat":"37.5493569608526","lng":"127.071024079018","source":"naver","mapUrl":"https://naver.me/5fPbzt40","placeId":"1580083114"}],"hasPlaceInfo":true,"collectedAt":"2026-01-07T23:15:20.956Z","failedUrls":[]}
{"videoId":"iETPfXvaYfE","places":[{"name":"고우 범계점","roadAddress":"경기 안양시 동안구 평촌대로223번길 36 3층","jibunAddress":"경기 안양시 동안구 호계동 1044","phone":"031-386-0331","category":"이자카야","lat":"37.3910139095848","lng":"126.953655294805","source":"naver","mapUrl":"https://naver.me/GMWujUWg","placeId":"1052450538"}],"hasPlaceInfo":true,"collectedAt":"2026-01-07T23:15:20.939Z","failedUrls":[]}
{"videoId":"TAnWqbGNglA","places":[{"name":"찬이네주먹고기","roadAddress":"경기 수원시 장안구 대평로90번길 19 수원라이프스포츠센터 1층","jibunAddress":"경기 수원시 장안구 정자동 872-2","phone":"0507-1474-9295","category":"돼지고기구이","lat":"37.2971355059389","lng":"126.99376072239","source":"naver","mapUrl":"https://naver.me/5c2ec4Kd","placeId":"1815845807"}],"hasPlaceInfo":true,"collectedAt":"2026-01-07T23:15:26.090Z","failedUrls":[]}
{"videoId":"8_AfhokGyF8","places":[{"name":"고향왕소금구이","roadAddress":"대구 북구 환성정길 35 1층","jibunAddress":"대구 북구 서변동 890-1","phone":"0507-1476-1698","category":"육류,고기요리","lat":"35.9241906029424","lng":"128.593678943181","source":"naver","mapUrl":"https://naver.me/xoYXHyjj","placeId":"16062857"}],"hasPlaceInfo":true,"collectedAt":"2026-01-07T23:15:26.129Z","failedUrls":[]}
{"videoId":"J31TslQ2wC0","places":[{"name":"송원생고기육회","roadAddress":"대구 수성구 신천동로88길 69","jibunAddress":"대구 수성구 수성동4가 1186-13","phone":"053-744-8856","category":"육류,고기요리","lat":"35.8603328154983","lng":"128.61280819467","source":"naver","mapUrl":"https://naver.me/xNmtllDq","placeId":"33462498"}],"hasPlaceInfo":true,"collectedAt":"2026-01-07T23:15:31.796Z","failedUrls":[]}
{"videoId":"Og2ZM-nF2c8","places":[{"name":"녹돼야지 송도타임스페이스 본점","roadAddress":"인천 연수구 하모니로 158 타임스페이스 A동 1층 녹돼야지 송도타임스페이스 본점","jibunAddress":"인천 연수구 송도동 8-21","phone":"0507-1377-8326","category":"육류,고기요리","lat":"37.38312354252111","lng":"126.64235724101351","source":"naver","mapUrl":"https://naver.me/GG8vVI1g","placeId":"1822404399"}],"hasPlaceInfo":true,"collectedAt":"2026-01-07T23:15:31.130Z","failedUrls":[]}
{"videoId":"Gq6sU9ngVXw","places":[{"name":"금돈미가","roadAddress":"대구 중구 대봉로 190-1 1층 금돈미가","jibunAddress":"대구 중구 대봉동 179-40","phone":"0507-1311-5728","category":"육류,고기요리","lat":"35.8557853057812","lng":"128.602532178151","source":"naver","mapUrl":"https://naver.me/GTONoBBs","placeId":"1011090496"}],"hasPlaceInfo":true,"collectedAt":"2026-01-07T23:15:36.080Z","failedUrls":[]}
{"videoId":"DQ9h2nM91co","places":[{"name":"호천생갈비 광명사거리역본점","roadAddress":"경기 광명시 오리로 999 1층,2층","jibunAddress":"경기 광명시 광명동 158-852","phone":"0507-1328-8293","category":"육류,고기요리","lat":"37.4798571778947","lng":"126.852163756821","source":"naver","mapUrl":"https://naver.me/xTbdjZ3B","placeId":"38576149"}],"hasPlaceInfo":true,"collectedAt":"2026-01-07T23:15:36.539Z","failedUrls":[]}
{"videoId":"XaHKI4_HM5g","places":[],"hasPlaceInfo":false,"collectedAt":"2026-01-07T23:17:41.402Z","failedUrls":[{"type":"google","url":"https://maps.app.goo.gl/AtvqR5CXCR15xWa46"}]}
{"videoId":"UXqQBNAheWk","places":[{"name":"야키토리 해공","roadAddress":"부산 수영구 민락본동로19번길 30-5 1층 해공","jibunAddress":"부산 수영구 민락동 24-6","phone":"051-758-8333","category":"일식당","lat":"35.15823671287849","lng":"129.1271149769829","source":"naver","mapUrl":"https://naver.me/Gl7vJyCt","placeId":"1125056586"}],"hasPlaceInfo":true,"collectedAt":"2026-01-07T23:15:41.098Z","failedUrls":[]}
{"videoId":"2g4GjOlhqHk","places":[],"hasPlaceInfo":false,"collectedAt":"2026-01-07T23:17:45.816Z","failedUrls":[{"type":"naver","url":"https://naver.me/5ssUtwVC"}]}
{"videoId":"bXpyBFXdQv0","places":[{"name":"백양육식장","roadAddress":"부산 부산진구 전포대로 216-1 1 층 백양 육식장","jibunAddress":"부산 부산진구 전포동 309-15","phone":"0507-1396-0760","category":"소고기구이","lat":"35.15597828317582","lng":"129.0656419946347","source":"naver","mapUrl":"https://naver.me/xlCVWSHD","placeId":"1563418703"}],"hasPlaceInfo":true,"collectedAt":"2026-01-07T23:17:46.849Z","failedUrls":[]}
{"videoId":"pM0KyPoENIc","places":[{"name":"일미등갈비","roadAddress":"경기 안산시 상록구 석호로 374","jibunAddress":"경기 안산시 상록구 본오동 829-5","phone":"031-415-1292","category":"육류,고기요리","lat":"37.2930551772345","lng":"126.872126556997","source":"naver","mapUrl":"https://naver.me/xcKAfEO2","placeId":"21530533"}],"hasPlaceInfo":true,"collectedAt":"2026-01-07T23:17:51.591Z","failedUrls":[]}
{"videoId":"AwOmra07avU","places":[{"name":"우메돈","roadAddress":"서울 중구 충무로 31 1층","jibunAddress":"서울 중구 초동 41-7","phone":"0507-1497-3124","category":"돈가스","lat":"37.5640265128455","lng":"126.992711931835","source":"naver","mapUrl":"https://naver.me/52R9dtbY","placeId":"1946183790"}],"hasPlaceInfo":true,"collectedAt":"2026-01-07T23:17:51.457Z","failedUrls":[]}
{"videoId":"JlsvNLRQ-Zw","places":[{"name":"연성갈비","roadAddress":"경기 화성시 동탄반송길 17-1","jibunAddress":"경기 화성시 반송동 35-2","phone":"0507-1324-9254","category":"육류,고기요리","lat":"37.20997039969616","lng":"127.06386994425085","source":"naver","mapUrl":"https://naver.me/56apwdTR","placeId":"1170548055"}],"hasPlaceInfo":true,"collectedAt":"2026-01-07T23:17:56.922Z","failedUrls":[]}
{"videoId":"KZVoezDikR8","places":[{"name":"Ginza Yakiniku Nikusyo Furusato（wagyu）","roadAddress":"일본 〒104-0061 Tokyo, Chuo City, Ginza, 8 Chome−8−11 博品館ビル ５階","phone":"+81 3-6274-6428","category":"야키니쿠 전문식당","lat":35.6678339,"lng":139.758457,"source":"google","mapUrl":"https://maps.app.goo.gl/LpnibMCzpVA2zo7JA"}],"hasPlaceInfo":true,"collectedAt":"2026-01-07T23:18:01.489Z","failedUrls":[]}
{"videoId":"VEGXUTMKHqo","places":[{"name":"부연","roadAddress":"경기 김포시 김포한강1로84번길 17-6 1층","jibunAddress":"경기 김포시 장기동 1966-9","phone":"0507-1382-7722","category":"육류,고기요리","lat":"37.6454060110481","lng":"126.671715045576","source":"naver","mapUrl":"https://naver.me/FARNwSMg","placeId":"1248539395"}],"hasPlaceInfo":true,"collectedAt":"2026-01-07T23:18:05.866Z","failedUrls":[]}
{"videoId":"N7DURTacujU","places":[{"name":"숙성도 을지로점","roadAddress":"서울 중구 삼일대로10길 36 2층","jibunAddress":"서울 중구 저동2가 89","phone":"0507-1491-8015","category":"돼지고기구이","lat":"37.565675096593864","lng":"126.98953003321823","source":"naver","mapUrl":"https://naver.me/FjbLtpzi","placeId":"1663003904"}],"hasPlaceInfo":true,"collectedAt":"2026-01-07T23:18:05.909Z","failedUrls":[]}
{"videoId":"APT0ncjbUt4","places":[{"name":"교카이젠","roadAddress":"경기 안양시 동안구 관평로212번길 15 상가동 지하층 105호","jibunAddress":"경기 안양시 동안구 관양동 1588-13","phone":"0507-1364-5221","category":"일식당","lat":"37.3962384485929","lng":"126.95969740985771","source":"naver","mapUrl":"https://naver.me/5pHbpKpJ","placeId":"1556512585"}],"hasPlaceInfo":true,"collectedAt":"2026-01-07T23:18:10.646Z","failedUrls":[]}
{"videoId":"Yqx3EhUNJrM","places":[{"name":"Gyubo","roadAddress":"7 Chome-3-12 Tateishi, Katsushika City, Tokyo 124-0012 일본","phone":"+81 3-5670-3793","category":"야키니쿠 전문식당","lat":35.7395672,"lng":139.8472142,"source":"google","mapUrl":"https://maps.app.goo.gl/nQAZbn5witUaygvc9"}],"hasPlaceInfo":true,"collectedAt":"2026-01-07T23:18:15.723Z","failedUrls":[]}
{"videoId":"eBoDrTGySXk","places":[{"name":"뭉텅 오목교점","roadAddress":"서울 양천구 오목로 339 1층","jibunAddress":"서울 양천구 목동 406-34","phone":"02-2644-7770","category":"돼지고기구이","lat":"37.524731476992145","lng":"126.87537712282224","source":"naver","mapUrl":"https://naver.me/5HtPnAw1","placeId":"1443659005"}],"hasPlaceInfo":true,"collectedAt":"2026-01-07T23:18:21.072Z","failedUrls":[]}
{"videoId":"V6QCc6bmM98","places":[{"name":"사랑방","roadAddress":"경기 안산시 단원구 너비울길 173","jibunAddress":"경기 안산시 단원구 화정동 25","phone":"031-403-0082","category":"소고기구이","lat":"37.36068809711324","lng":"126.83283796859688","source":"naver","mapUrl":"https://naver.me/xFprQPP4","placeId":"18195880"}],"hasPlaceInfo":true,"collectedAt":"2026-01-07T23:18:20.886Z","failedUrls":[]}
{"videoId":"Lw9SmVwS3ug","places":[{"name":"세종참숯돼지갈비 본점","roadAddress":"경기 수원시 영통구 청명남로4번길 5-16","jibunAddress":"경기 수원시 영통구 영통동 1001-1","phone":"031-206-1127","category":"돼지고기구이","lat":"37.2507519774929","lng":"127.074361015554","source":"naver","mapUrl":"https://naver.me/GHvLzsiy","placeId":"37452343"}],"hasPlaceInfo":true,"collectedAt":"2026-01-07T23:18:25.836Z","failedUrls":[]}
{"videoId":"b8eZaPwEHbw","places":[{"name":"정숙성 샤로수길점","roadAddress":"서울 관악구 남부순환로226길 31 1층 정숙성","jibunAddress":"서울 관악구 봉천동 1603-3","phone":"0507-1370-6668","category":"육류,고기요리","lat":"37.47919458101109","lng":"126.95375917295634","source":"naver","mapUrl":"https://naver.me/xJNcDsv8","placeId":"1959742624"}],"hasPlaceInfo":true,"collectedAt":"2026-01-07T23:18:25.891Z","failedUrls":[]}
{"videoId":"UpJXb7_Yh2w","places":[{"name":"봉피양 방이점","roadAddress":"서울 송파구 양재대로71길 1-4","jibunAddress":"서울 송파구 방이동 205","phone":"02-415-5527","category":"한식","lat":"37.5100191449277","lng":"127.126184140413","source":"naver","mapUrl":"https://naver.me/5Gy547ax","placeId":"11861413"}],"hasPlaceInfo":true,"collectedAt":"2026-01-07T23:18:30.702Z","failedUrls":[]}
{"videoId":"WMZwmxHvkiI","places":[{"name":"당진생고기촌","roadAddress":"경기 수원시 장안구 팔달로199번길 38 당진생고기촌","jibunAddress":"경기 수원시 장안구 영화동 427-8","phone":"031-254-6090","category":"육류,고기요리","lat":"37.28720422578536","lng":"127.00696920960569","source":"naver","mapUrl":"https://naver.me/5rhIPO3H","placeId":"17973191"}],"hasPlaceInfo":true,"collectedAt":"2026-01-07T23:18:31.161Z","failedUrls":[]}
{"videoId":"Cq-pV4nayjw","places":[{"name":"양부자","roadAddress":"경기 용인시 기흥구 사은로 100 천하무적삼겹살","jibunAddress":"경기 용인시 기흥구 보라동 144-1","phone":"031-275-3637","category":"육류,고기요리","lat":"37.2559551922447","lng":"127.116182128912","source":"naver","mapUrl":"https://naver.me/58NOQ33I","placeId":"1885326267"}],"hasPlaceInfo":true,"collectedAt":"2026-01-07T23:18:36.282Z","failedUrls":[]}
{"videoId":"lQVi1Rd9jJo","places":[{"name":"무쇠막생고기","roadAddress":"서울 성동구 금호로 47-1","jibunAddress":"서울 성동구 금호동4가 118","phone":"02-2299-4910","category":"돼지고기구이","lat":"37.547820182068996","lng":"127.02546141076782","source":"naver","mapUrl":"https://naver.me/F40RfAn1","placeId":"17911554"}],"hasPlaceInfo":true,"collectedAt":"2026-01-07T23:18:36.371Z","failedUrls":[]}
{"videoId":"9fhA1w_Kj1g","places":[{"name":"한신가든","roadAddress":"경기 시흥시 가마길 40-22","jibunAddress":"경기 시흥시 대야동 201-11","phone":"031-314-5158","category":"한식","lat":"37.4537551333798","lng":"126.791374321378","source":"naver","mapUrl":"https://naver.me/FbzU5EQt","placeId":"17889091"}],"hasPlaceInfo":true,"collectedAt":"2026-01-07T23:18:41.433Z","failedUrls":[]}
{"videoId":"wxnUrstMzH4","places":[{"name":"원조 조박집 본관","roadAddress":"서울 마포구 토정로 313-1 1층동","jibunAddress":"서울 마포구 용강동 40-1","phone":"02-712-7462","category":"육류,고기요리","lat":"37.539972062009305","lng":"126.94386630483366","source":"naver","mapUrl":"https://naver.me/IgoGlmuh","placeId":"11679456"}],"hasPlaceInfo":true,"collectedAt":"2026-01-07T23:18:41.618Z","failedUrls":[]}
{"videoId":"IrzQpB_hRcg","places":[{"name":"돈장군주먹고기","roadAddress":"경기 안양시 동안구 인덕원로24번길 14","jibunAddress":"경기 안양시 동안구 관양동 1490-7","phone":"0507-1443-1378","category":"육류,고기요리","lat":"37.4014793844151","lng":"126.974872797402","source":"naver","mapUrl":"https://naver.me/xn6yNwbE","placeId":"36481168"}],"hasPlaceInfo":true,"collectedAt":"2026-01-07T23:18:46.786Z","failedUrls":[]}
{"videoId":"KQzgUAOIMuY","places":[{"name":"강원멧돼지","roadAddress":"경기 의왕시 상직막길 34","jibunAddress":"경기 의왕시 청계동 647","phone":"0507-1439-5561","category":"돼지고기구이","lat":"37.4018820876235","lng":"127.002177521856","source":"naver","mapUrl":"https://naver.me/GnvY1X15","placeId":"19763725"}],"hasPlaceInfo":true,"collectedAt":"2026-01-07T23:18:46.644Z","failedUrls":[]}
{"videoId":"sQR7KS23C1g","places":[{"name":"남산막창","roadAddress":"서울 용산구 장문로 81 1층","jibunAddress":"서울 용산구 보광동 217-13","phone":"02-792-7469","category":"돼지고기구이","lat":"37.5261640393948","lng":"126.998642450727","source":"naver","mapUrl":"https://naver.me/5zlQdn6y","placeId":"1603591552"}],"hasPlaceInfo":true,"collectedAt":"2026-01-07T23:18:50.979Z","failedUrls":[]}
{"videoId":"IpwNBwqYHh8","places":[{"name":"천현한우집","roadAddress":"경기 광주시 초월읍 무갑길 68","jibunAddress":"경기 광주시 초월읍 무갑리 607","phone":"031-763-5762","category":"소고기구이","lat":"37.4221067694796","lng":"127.314934927309","source":"naver","mapUrl":"https://naver.me/xhHlQJPc","placeId":"12010808"}],"hasPlaceInfo":true,"collectedAt":"2026-01-07T23:18:51.369Z","failedUrls":[]}
{"videoId":"uw85_96jrdA","places":[{"name":"동수원소금구이","roadAddress":"경기 수원시 권선구 구운로86번길 29","jibunAddress":"경기 수원시 권선구 구운동 476-10","phone":"031-293-9592","category":"육류,고기요리","lat":"37.2804817525014","lng":"126.974583816961","source":"naver","mapUrl":"https://naver.me/5Z0SAq0f","placeId":"18050794"}],"hasPlaceInfo":true,"collectedAt":"2026-01-07T23:18:55.813Z","failedUrls":[]}
{"videoId":"volc36r7744","places":[{"name":"홍고집","roadAddress":"경기 광주시 이배재로 209-4","jibunAddress":"경기 광주시 목현동 41","phone":"0507-1361-6119","category":"육류,고기요리","lat":"37.4325616030594","lng":"127.234526934633","source":"naver","mapUrl":"https://naver.me/xhKSQM7Z","placeId":"34969226"}],"hasPlaceInfo":true,"collectedAt":"2026-01-07T23:18:55.851Z","failedUrls":[]}
{"videoId":"4HfqiWYy6J0","places":[{"name":"도마집","roadAddress":"대전 서구 도산로 102","jibunAddress":"대전 서구 도마동 90-35","phone":"042-525-9392","category":"육류,고기요리","lat":"36.317495026407634","lng":"127.37846978335322","source":"naver","mapUrl":"https://naver.me/F1e2LmeE","placeId":"21454104"}],"hasPlaceInfo":true,"collectedAt":"2026-01-07T23:19:01.493Z","failedUrls":[]}
{"videoId":"dCzWCnfEnKw","places":[{"name":"윤서울","roadAddress":"서울 강남구 선릉로 805 1층","jibunAddress":null,"phone":"010-6742-4205","category":"한식","lat":"37.52406726965386","lng":"127.03903976108063","source":"naver","mapUrl":"https://naver.me/xlW1OvWO","placeId":"1698341503"}],"hasPlaceInfo":true,"collectedAt":"2026-01-07T23:19:01.008Z","failedUrls":[]}
{"videoId":"uVeLDBRK6z8","places":[{"name":"봉래식당","roadAddress":"경기 남양주시 조안면 북한강로873번길 15-12 봉래보리밥","jibunAddress":"경기 남양주시 조안면 삼봉리 179-4","phone":"031-576-8897","category":"한식","lat":"37.59460251345788","lng":"127.33650196740166","source":"naver","mapUrl":"https://naver.me/xL1Wszyr","placeId":"18210723"}],"hasPlaceInfo":true,"collectedAt":"2026-01-07T23:19:06.811Z","failedUrls":[]}
{"videoId":"X6HAxvt0dgc","places":[{"name":"우촌숯불갈비","roadAddress":"서울 성동구 장터길 44","jibunAddress":"서울 성동구 금호동4가 1119-2","phone":"02-2292-9072","category":"육류,고기요리","lat":"37.5481466436773","lng":"127.02069965148","source":"naver","mapUrl":"https://naver.me/57ril2KN","placeId":"1653230873"}],"hasPlaceInfo":true,"collectedAt":"2026-01-07T23:19:06.922Z","failedUrls":[]}
{"videoId":"wKH7vfOhVtw","places":[{"name":"호수식당","roadAddress":"대전 중구 목척4길 60 호수식당","jibunAddress":"대전 중구 은행동 129-3","phone":"042-257-7776","category":"한식","lat":"36.3297977733057","lng":"127.42515717518","source":"naver","mapUrl":"https://naver.me/GALMhZA3","placeId":"1168714487"}],"hasPlaceInfo":true,"collectedAt":"2026-01-07T23:19:11.996Z","failedUrls":[]}
{"videoId":"oKOce6uvxJg","places":[{"name":"사라우츠 ZARAUTZ","roadAddress":"서울 강남구 도산대로51길 33 2층 사라우츠","jibunAddress":null,"phone":"010-2230-9697","category":"스페인음식","lat":"37.5253263458055","lng":"127.037885381993","source":"naver","mapUrl":"https://naver.me/FRctMdEr","placeId":"1875390254"}],"hasPlaceInfo":true,"collectedAt":"2026-01-07T23:19:12.506Z","failedUrls":[]}
{"videoId":"k6fIRN1EFxk","places":[{"name":"부일숯불갈비","roadAddress":"서울 영등포구 영중로6길 23-8","jibunAddress":"서울 영등포구 영등포동3가 23-11","phone":"02-2636-9462","category":"육류,고기요리","lat":"37.51814582607549","lng":"126.90863540904311","source":"naver","mapUrl":"https://naver.me/GqNuJJQv","placeId":"18560835"}],"hasPlaceInfo":true,"collectedAt":"2026-01-07T23:19:17.450Z","failedUrls":[]}
{"videoId":"pc6kckR9jzo","places":[{"name":"산막골가든","roadAddress":"대전 서구 장안로 772-62","jibunAddress":"대전 서구 장안동 416-3","phone":"042-585-2475","category":"육류,고기요리","lat":"36.19678110594209","lng":"127.33672370703381","source":"naver","mapUrl":"https://naver.me/5bXVCXSL","placeId":"33989564"}],"hasPlaceInfo":true,"collectedAt":"2026-01-07T23:19:17.861Z","failedUrls":[]}
{"videoId":"7eknb74iU8E","places":[{"name":"돈고을 생고기","roadAddress":"충남 서산시 율지7로 19 청솔빌딩 1층","jibunAddress":"충남 서산시 동문동 193-13","phone":"041-663-4543","category":"육류,고기요리","lat":"36.77843749294059","lng":"126.46586993206101","source":"naver","mapUrl":"https://naver.me/FeOp9Iko","placeId":"13474361"}],"hasPlaceInfo":true,"collectedAt":"2026-01-07T23:19:22.587Z","failedUrls":[]}
{"videoId":"7MqeS-S8llc","places":[{"name":"대도숯불구이","roadAddress":"서울 성동구 용답29길 18 1층","jibunAddress":"서울 성동구 용답동 4-6","phone":"02-2242-8338","category":"육류,고기요리","lat":"37.56430434603674","lng":"127.05435567385247","source":"naver","mapUrl":"https://naver.me/5EQansfU","placeId":"18798199"}],"hasPlaceInfo":true,"collectedAt":"2026-01-07T23:19:22.178Z","failedUrls":[]}
{"videoId":"h-PF5z9GvQc","places":[{"name":"춘천농민한우 신북점","roadAddress":"강원 춘천시 신북읍 신샘밭로 360","jibunAddress":"강원 춘천시 신북읍 율문리 935-17","phone":"033-241-9289","category":"소고기구이","lat":"37.9243942169018","lng":"127.750914599917","source":"naver","mapUrl":"https://naver.me/GkKRRYVZ","placeId":"65694837"}],"hasPlaceInfo":true,"collectedAt":"2026-01-07T23:19:27.898Z","failedUrls":[]}
{"videoId":"pZ0SuTm6GsE","places":[{"name":"평화불고기","roadAddress":"강원 춘천시 보안길 50","jibunAddress":"강원 춘천시 후평동 72-1","phone":"033-255-1271","category":"소고기구이","lat":"37.8790634134817","lng":"127.751454368071","source":"naver","mapUrl":"https://naver.me/5SyV456i","placeId":"15150311"}],"hasPlaceInfo":true,"collectedAt":"2026-01-07T23:19:27.559Z","failedUrls":[]}
{"videoId":"00BklGRlQP8","places":[{"name":"봉래식당","roadAddress":"경기 남양주시 조안면 북한강로873번길 15-12 봉래보리밥","jibunAddress":"경기 남양주시 조안면 삼봉리 179-4","phone":"031-576-8897","category":"한식","lat":"37.59460251345788","lng":"127.33650196740166","source":"naver","mapUrl":"https://naver.me/xL1Wszyr","placeId":"18210723"}],"hasPlaceInfo":true,"collectedAt":"2026-01-07T23:19:32.885Z","failedUrls":[]}
{"videoId":"0L-ehUbcaqw","places":[{"name":"뚜레한우 남양주점","roadAddress":"경기 남양주시 화도읍 마치로 315","jibunAddress":"경기 남양주시 화도읍 묵현리 372-27","phone":"031-593-8980","category":"소고기구이","lat":"37.6546363519285","lng":"127.280525810819","source":"naver","mapUrl":"https://naver.me/52lhMnY8","placeId":"37413858"}],"hasPlaceInfo":true,"collectedAt":"2026-01-07T23:19:32.757Z","failedUrls":[]}
{"videoId":"W9nhVmt8WcU","places":[{"name":"Nakasei Nikuzuki","roadAddress":"573 Inaricho Kitagumi, Higashiyama Ward, Kyoto, 605-0068 일본","phone":"+81 75-748-1429","category":"고기 요리 전문점","lat":34.9994283,"lng":135.7747624,"source":"google","mapUrl":"https://maps.app.goo.gl/3BE31ULRvVwZkftA6"}],"hasPlaceInfo":true,"collectedAt":"2026-01-07T23:20:01.596Z","failedUrls":[]}
{"videoId":"vC7SxxgHias","places":[{"name":"여락식당","roadAddress":"인천 서구 백범로622번길 30 B1.2호","jibunAddress":"인천 서구 가좌동 480-20","phone":"0507-1379-8488","category":"정육식당","lat":"37.4791356429999","lng":"126.688592975084","source":"naver","mapUrl":"https://naver.me/FGFiLUwA","placeId":"1466939720"}],"hasPlaceInfo":true,"collectedAt":"2026-01-07T23:19:37.368Z","failedUrls":[]}
{"videoId":"1SLbLyYAq9k","places":[{"name":"원픽","roadAddress":"서울 강남구 선릉로127길 10 1층","jibunAddress":"서울 강남구 논현동 242-14","phone":"0507-1314-2129","category":"돼지고기구이","lat":"37.5155981296269","lng":"127.040850814914","source":"naver","mapUrl":"https://naver.me/GWJOj6Jq","placeId":"1883061299"}],"hasPlaceInfo":true,"collectedAt":"2026-01-07T23:20:06.179Z","failedUrls":[]}
{"videoId":"XNY73Q_CMUM","places":[{"name":"오케이목장","roadAddress":"경기 의왕시 청계로 106","jibunAddress":"경기 의왕시 청계동 571","phone":"031-426-0119","category":"육류,고기요리","lat":"37.397344463281705","lng":"127.00486976563272","source":"naver","mapUrl":"https://naver.me/FiLEEu4S","placeId":"11066693"}],"hasPlaceInfo":true,"collectedAt":"2026-01-07T23:20:06.504Z","failedUrls":[]}
{"videoId":"8b8E3OzRFyw","places":[{"name":"마장동김씨 수원인계점","roadAddress":"경기 수원시 팔달구 경수대로446번길 61 101호","jibunAddress":"경기 수원시 팔달구 인계동 1032-8","phone":"0507-1404-4649","category":"육류,고기요리","lat":"37.2651954025778","lng":"127.03008288902","source":"naver","mapUrl":"https://naver.me/xao4LM7Z","placeId":"1123377484"}],"hasPlaceInfo":true,"collectedAt":"2026-01-07T23:20:11.882Z","failedUrls":[]}
{"videoId":"SDgjF66kAZM","places":[],"hasPlaceInfo":false,"collectedAt":"2026-01-07T23:20:15.265Z","failedUrls":[{"type":"naver","url":"https://naver.me/FfAP9uBE"}]}
{"videoId":"PDe_yBlWoIA","places":[{"name":"늘조은한우 구의직영점","roadAddress":"서울 광진구 아차산로 355 광진아크로텔 103, 104호","jibunAddress":"서울 광진구 자양동 779","phone":"0507-1389-8315","category":"육류,고기요리","lat":"37.5375240444831","lng":"127.0822720368","source":"naver","mapUrl":"https://naver.me/GXq3SdXj","placeId":"1518421501"}],"hasPlaceInfo":true,"collectedAt":"2026-01-07T23:20:19.819Z","failedUrls":[]}
{"videoId":"xaKFDTIUCeE","places":[{"name":"금돼지식당","roadAddress":"서울 중구 다산로 149","jibunAddress":"서울 중구 신당동 370-69","phone":"0507-1307-8750","category":"돼지고기구이","lat":"37.55705875134064","lng":"127.01167974212188","source":"naver","mapUrl":"https://naver.me/G3XM57XC","placeId":"37869877"},{"name":"남영돈","roadAddress":"서울 용산구 한강대로80길 17 남영돈","jibunAddress":"서울 용산구 남영동 52-2","phone":"0507-1351-3598","category":"돼지고기구이","lat":"37.5427503629762","lng":"126.973775391327","source":"naver","mapUrl":"https://naver.me/5dP7fepB","placeId":"19774046"}],"hasPlaceInfo":true,"collectedAt":"2026-01-07T23:20:24.123Z","failedUrls":[]}
{"videoId":"H-iTPuddax4","places":[{"name":"원조포항푸줏간","roadAddress":"경북 포항시 북구 중앙로 362 원도포항푸줏간","jibunAddress":"경북 포항시 북구 덕수동 47-1","phone":"054-242-9993","category":"한식","lat":"36.0449512242504","lng":"129.365181740819","source":"naver","mapUrl":"https://naver.me/IxWfuUhu","placeId":"20416487"}],"hasPlaceInfo":true,"collectedAt":"2026-01-07T23:20:29.276Z","failedUrls":[]}
{"videoId":"0YxmFcvclSI","places":[{"name":"죽도숯불간받이","roadAddress":"경북 포항시 북구 죽도시장4길 14-5","jibunAddress":"경북 포항시 북구 죽도동 12-66","phone":"054-244-4847","category":"육류,고기요리","lat":"36.033854953282066","lng":"129.3664892652587","source":"naver","mapUrl":"https://naver.me/xevcsRbW","placeId":"15197350"}],"hasPlaceInfo":true,"collectedAt":"2026-01-07T23:20:28.901Z","failedUrls":[]}
{"videoId":"G5RyWNfi2Zs","places":[{"name":"참다운정육식당 광교점","roadAddress":"경기 용인시 수지구 광교마을로 33 1층","jibunAddress":"경기 용인시 수지구 상현동 1174-2","phone":"031-214-8777","category":"정육식당","lat":"37.2992620988691","lng":"127.068532472036","source":"naver","mapUrl":"https://naver.me/xVA2sUup","placeId":"1071711527"}],"hasPlaceInfo":true,"collectedAt":"2026-01-07T23:20:34.384Z","failedUrls":[]}
{"videoId":"U4sMy2RsWew","places":[{"name":"이츠야","roadAddress":"서울 마포구 양화로6길 99-9","jibunAddress":"서울 마포구 서교동 402-11","phone":"02-336-9244","category":"돈가스","lat":"37.5487592205416","lng":"126.919934746818","source":"naver","mapUrl":"https://naver.me/51ak0vEH","placeId":"1954904928"}],"hasPlaceInfo":true,"collectedAt":"2026-01-07T23:20:34.016Z","failedUrls":[]}
{"videoId":"Hx5wX8bYYb8","places":[{"name":"기승전우","roadAddress":"서울 종로구 사직로8길 15-3","jibunAddress":"서울 종로구 내자동 172-1","phone":"0507-1332-3199","category":"소고기구이","lat":"37.57492238862723","lng":"126.97047670353331","source":"naver","mapUrl":"https://naver.me/5cTAVlmL","placeId":"1106798624"}],"hasPlaceInfo":true,"collectedAt":"2026-01-07T23:20:38.923Z","failedUrls":[]}
{"videoId":"XCWbp73YCiQ","places":[{"name":"넙딱집 상암점","roadAddress":"서울 마포구 월드컵북로48길 25 1층","jibunAddress":"서울 마포구 상암동 15-21","phone":"0507-1448-8334","category":"돼지고기구이","lat":"37.57717234316135","lng":"126.89491972728386","source":"naver","mapUrl":"https://naver.me/53U6kxas","placeId":"1193901313"}],"hasPlaceInfo":true,"collectedAt":"2026-01-07T23:20:39.081Z","failedUrls":[]}
{"videoId":"lFLmr0uaDPI","places":[{"name":"나가하마 선어시장","roadAddress":"일본 〒810-0072 Fukuoka, Chuo Ward, Nagahama, 3 Chome−11−3 市場会館 １階 鮮魚市場市場会館","phone":"+81 92-711-6414","category":"수산 시장","lat":33.5946353,"lng":130.3895178,"source":"google","mapUrl":"https://maps.app.goo.gl/aiBGqM85yEm7LtWp9"},{"name":"리카엔 다이묘 본점","roadAddress":"2 Chome-3-12 Daimyo, Chuo Ward, Fukuoka, 810-0041 일본","phone":"+81 92-752-8833","category":"한식 고기구이 레스토랑","lat":33.587993,"lng":130.3912203,"source":"google","mapUrl":"https://maps.app.goo.gl/1Vn1yUbEmxvgyu5x7"},{"name":"Yakiniku Like tenjinnishidori","roadAddress":"2 Chome-7-12 Tenjin, Chuo Ward, Fukuoka, 810-0001 일본","phone":"+81 92-401-1533","category":"야키니쿠 전문식당","lat":33.5897926,"lng":130.391231,"source":"google","mapUrl":"https://maps.app.goo.gl/DTSphhRjC1ozjoQPA"},{"name":"야키니쿠 하치하치 하카타점","roadAddress":"3 Chome-12-20 Hakataekihigashi, Hakata Ward, Fukuoka, 812-0013 일본","phone":"+81 92-414-8815","category":"야키니쿠 전문식당","lat":33.5860026,"lng":130.4226593,"source":"google","mapUrl":"https://maps.app.goo.gl/aBLcuF46JdXznbVUA"}],"hasPlaceInfo":true,"collectedAt":"2026-01-07T23:21:18.980Z","failedUrls":[]}
{"videoId":"pQFnx89t2oc","places":[{"name":"쿠이야","roadAddress":"1 Chome-18-26 Tengachaya, Nishinari Ward, Osaka, 557-0014 일본","phone":"+81 6-6651-6782","category":"야키니쿠 전문식당","lat":34.6427823,"lng":135.4972617,"source":"google","mapUrl":"https://maps.app.goo.gl/eY5EFE4eq1VrnQtd8"}],"hasPlaceInfo":true,"collectedAt":"2026-01-07T23:20:49.139Z","failedUrls":[]}
{"videoId":"pkAeWcuqL_Y","places":[{"name":"다이후쿠엔","roadAddress":"2 Chome-13-6 Asakusa, Taito City, Tokyo 111-0032 일본","phone":"+81 3-3841-2705","category":"야키니쿠 전문식당","lat":35.7157752,"lng":139.7903327,"source":"google","mapUrl":"https://maps.app.goo.gl/ESnmUR6huMVMLJuF7"},{"name":"焼肉ホルモン金樹","roadAddress":"2 Chome-13-17 Akasaka, Minato City, Tokyo 107-0052 일본","phone":"+81 3-6277-8829","category":"곱창구이 전문점","lat":35.6723501,"lng":139.7373879,"source":"google","mapUrl":"https://maps.app.goo.gl/uMTQ8atARJyMNjGk8"}],"hasPlaceInfo":true,"collectedAt":"2026-01-07T23:21:42.989Z","failedUrls":[]}
{"videoId":"xSe3DMnP_rM","places":[{"name":"미키","roadAddress":"1 Chome-13-9 Higashishinsaibashi, Chuo Ward, Osaka, 542-0083 일본","phone":"+81 6-6241-9228","category":"야키니쿠 전문식당","lat":34.6736049,"lng":135.5017062,"source":"google","mapUrl":"https://maps.app.goo.gl/mmfPPvKkk4D6DL2ZA"}],"hasPlaceInfo":true,"collectedAt":"2026-01-07T23:21:29.721Z","failedUrls":[]}